part, mode, altitude, latitude, longitude, accelerometer_x, accelerometer_y, accelerometer_z, yaw, pitch, roll, magnetometer_x, magnetometer_y, magnetometer_z, gps_altitude, kalman_altitude, kalman_velocity, ematch_status, temperature, timestamp
Booster, Armed, 1400, 32.98931, -106.97304, 1, 2, 3, 0.0004, 0.0006, 0.000054, 4, 5, 6, 2299, 2298, 1, 2, undefined, 1493338754850, 
Sustainer, Armed, 1400, 32.98931, -106.97304, 1, 2, 3, 0.0004, 0.0006, 0.000054, 4, 5, 6, 2299, 2298, 1, 2, undefined, 1493338754854, 
Booster, Armed, 1500, 32.989320000000006, -106.97303, 2, 4, 6, 0.0008, 0.0012, 0.000108, 8, 10, 12, 3298, 3296, 2, 4, undefined, 1493338755866, 
Sustainer, Armed, 1500, 32.989320000000006, -106.97303, 2, 4, 6, 0.0008, 0.0012, 0.000108, 8, 10, 12, 3298, 3296, 2, 4, undefined, 1493338755866, 
Booster, Armed, 1600, 32.98933000000001, -106.97301999999999, 3, 6, 9, 0.0012000000000000001, 0.0018, 0.00016199999999999998, 12, 15, 18, 4297, 4294, 3, 6, undefined, 1493338756879, 
Sustainer, Armed, 1600, 32.98933000000001, -106.97301999999999, 3, 6, 9, 0.0012000000000000001, 0.0018, 0.00016199999999999998, 12, 15, 18, 4297, 4294, 3, 6, undefined, 1493338756880, 
Booster, Armed, 1700, 32.98934000000001, -106.97300999999999, 4, 8, 12, 0.0016, 0.0024, 0.000216, 16, 20, 24, 5296, 5292, 4, 8, undefined, 1493338757890, 
Sustainer, Armed, 1700, 32.98934000000001, -106.97300999999999, 4, 8, 12, 0.0016, 0.0024, 0.000216, 16, 20, 24, 5296, 5292, 4, 8, undefined, 1493338757891, 
Booster, Armed, 1800, 32.989350000000016, -106.97299999999998, 5, 10, 15, 0.002, 0.0029999999999999996, 0.00027, 20, 25, 30, 6295, 6290, 5, 10, undefined, 1493338758903, 
Sustainer, Armed, 1800, 32.989350000000016, -106.97299999999998, 5, 10, 15, 0.002, 0.0029999999999999996, 0.00027, 20, 25, 30, 6295, 6290, 5, 10, undefined, 1493338758904, 
Booster, Armed, 1900, 32.98936000000002, -106.97298999999998, 6, 12, 18, 0.0024000000000000002, 0.0035999999999999995, 0.000324, 24, 30, 36, 7294, 7288, 6, 12, undefined, 1493338759920, 
Sustainer, Armed, 1900, 32.98936000000002, -106.97298999999998, 6, 12, 18, 0.0024000000000000002, 0.0035999999999999995, 0.000324, 24, 30, 36, 7294, 7288, 6, 12, undefined, 1493338759920, 
Booster, Armed, 2000, 32.98937000000002, -106.97297999999998, 7, 14, 21, 0.0028000000000000004, 0.0042, 0.000378, 28, 35, 42, 8293, 8286, 7, 14, undefined, 1493338760929, 
Sustainer, Armed, 2000, 32.98937000000002, -106.97297999999998, 7, 14, 21, 0.0028000000000000004, 0.0042, 0.000378, 28, 35, 42, 8293, 8286, 7, 14, undefined, 1493338760929, 
Booster, Armed, 2100, 32.989380000000025, -106.97296999999998, 8, 16, 24, 0.0032000000000000006, 0.0048, 0.00043200000000000004, 32, 40, 48, 9292, 9284, 8, 16, undefined, 1493338761938, 
Sustainer, Armed, 2100, 32.989380000000025, -106.97296999999998, 8, 16, 24, 0.0032000000000000006, 0.0048, 0.00043200000000000004, 32, 40, 48, 9292, 9284, 8, 16, undefined, 1493338761938, 
Booster, Armed, 2200, 32.98939000000003, -106.97295999999997, 9, 18, 27, 0.0036000000000000008, 0.005399999999999999, 0.00048600000000000005, 36, 45, 54, 10291, 10282, 9, 18, undefined, 1493338762955, 
Sustainer, Armed, 2200, 32.98939000000003, -106.97295999999997, 9, 18, 27, 0.0036000000000000008, 0.005399999999999999, 0.00048600000000000005, 36, 45, 54, 10291, 10282, 9, 18, undefined, 1493338762955, 
Booster, Armed, 2300, 32.98940000000003, -106.97294999999997, 10, 20, 30, 0.004000000000000001, 0.005999999999999999, 0.00054, 40, 50, 60, 11290, 11280, 10, 20, undefined, 1493338763966, 
Sustainer, Armed, 2300, 32.98940000000003, -106.97294999999997, 10, 20, 30, 0.004000000000000001, 0.005999999999999999, 0.00054, 40, 50, 60, 11290, 11280, 10, 20, undefined, 1493338763966, 
Booster, Armed, 2400, 32.989410000000035, -106.97293999999997, 11, 22, 33, 0.004400000000000001, 0.006599999999999999, 0.000594, 44, 55, 66, 12289, 12278, 11, 22, undefined, 1493338764972, 
Sustainer, Armed, 2400, 32.989410000000035, -106.97293999999997, 11, 22, 33, 0.004400000000000001, 0.006599999999999999, 0.000594, 44, 55, 66, 12289, 12278, 11, 22, undefined, 1493338764972, 
Booster, Armed, 2500, 32.98942000000004, -106.97292999999996, 12, 24, 36, 0.004800000000000001, 0.007199999999999999, 0.000648, 48, 60, 72, 13288, 13276, 12, 24, undefined, 1493338765992, 
Sustainer, Armed, 2500, 32.98942000000004, -106.97292999999996, 12, 24, 36, 0.004800000000000001, 0.007199999999999999, 0.000648, 48, 60, 72, 13288, 13276, 12, 24, undefined, 1493338765992, 
Booster, Armed, 2600, 32.98943000000004, -106.97291999999996, 13, 26, 39, 0.0052000000000000015, 0.007799999999999999, 0.000702, 52, 65, 78, 14287, 14274, 13, 26, undefined, 1493338767009, 
Sustainer, Armed, 2600, 32.98943000000004, -106.97291999999996, 13, 26, 39, 0.0052000000000000015, 0.007799999999999999, 0.000702, 52, 65, 78, 14287, 14274, 13, 26, undefined, 1493338767009, 
Booster, Armed, 2700, 32.989440000000045, -106.97290999999996, 14, 28, 42, 0.005600000000000002, 0.0084, 0.000756, 56, 70, 84, 15286, 15272, 14, 28, undefined, 1493338768019, 
Sustainer, Armed, 2700, 32.989440000000045, -106.97290999999996, 14, 28, 42, 0.005600000000000002, 0.0084, 0.000756, 56, 70, 84, 15286, 15272, 14, 28, undefined, 1493338768019, 
Booster, Armed, 2800, 32.98945000000005, -106.97289999999995, 15, 30, 45, 0.006000000000000002, 0.009, 0.0008100000000000001, 60, 75, 90, 16285, 16270, 15, 30, undefined, 1493338769040, 
Sustainer, Armed, 2800, 32.98945000000005, -106.97289999999995, 15, 30, 45, 0.006000000000000002, 0.009, 0.0008100000000000001, 60, 75, 90, 16285, 16270, 15, 30, undefined, 1493338769040, 
Booster, Armed, 2900, 32.98946000000005, -106.97288999999995, 16, 32, 48, 0.006400000000000002, 0.0096, 0.0008640000000000001, 64, 80, 96, 17284, 17268, 16, 32, undefined, 1493338770055, 
Sustainer, Armed, 2900, 32.98946000000005, -106.97288999999995, 16, 32, 48, 0.006400000000000002, 0.0096, 0.0008640000000000001, 64, 80, 96, 17284, 17268, 16, 32, undefined, 1493338770055, 
Booster, Armed, 3000, 32.989470000000054, -106.97287999999995, 17, 34, 51, 0.006800000000000002, 0.010199999999999999, 0.0009180000000000001, 68, 85, 102, 18283, 18266, 17, 34, undefined, 1493338771075, 
Sustainer, Armed, 3000, 32.989470000000054, -106.97287999999995, 17, 34, 51, 0.006800000000000002, 0.010199999999999999, 0.0009180000000000001, 68, 85, 102, 18283, 18266, 17, 34, undefined, 1493338771075, 
Booster, Armed, 3100, 32.98948000000006, -106.97286999999994, 18, 36, 54, 0.007200000000000002, 0.010799999999999999, 0.0009720000000000001, 72, 90, 108, 19282, 19264, 18, 36, undefined, 1493338772086, 
Sustainer, Armed, 3100, 32.98948000000006, -106.97286999999994, 18, 36, 54, 0.007200000000000002, 0.010799999999999999, 0.0009720000000000001, 72, 90, 108, 19282, 19264, 18, 36, undefined, 1493338772086, 
Booster, Armed, 3200, 32.98949000000006, -106.97285999999994, 19, 38, 57, 0.007600000000000003, 0.011399999999999999, 0.001026, 76, 95, 114, 20281, 20262, 19, 38, undefined, 1493338773097, 
Sustainer, Armed, 3200, 32.98949000000006, -106.97285999999994, 19, 38, 57, 0.007600000000000003, 0.011399999999999999, 0.001026, 76, 95, 114, 20281, 20262, 19, 38, undefined, 1493338773098, 
Booster, Armed, 3300, 32.98950000000006, -106.97284999999994, 20, 40, 60, 0.008000000000000002, 0.011999999999999999, 0.00108, 80, 100, 120, 21280, 21260, 20, 40, undefined, 1493338774104, 
Sustainer, Armed, 3300, 32.98950000000006, -106.97284999999994, 20, 40, 60, 0.008000000000000002, 0.011999999999999999, 0.00108, 80, 100, 120, 21280, 21260, 20, 40, undefined, 1493338774104, 
Booster, Armed, 3400, 32.98951000000007, -106.97283999999993, 21, 42, 63, 0.008400000000000001, 0.012599999999999998, 0.001134, 84, 105, 126, 22279, 22258, 21, 42, undefined, 1493338775116, 
Sustainer, Armed, 3400, 32.98951000000007, -106.97283999999993, 21, 42, 63, 0.008400000000000001, 0.012599999999999998, 0.001134, 84, 105, 126, 22279, 22258, 21, 42, undefined, 1493338775116, 
Booster, Armed, 3500, 32.98952000000007, -106.97282999999993, 22, 44, 66, 0.0088, 0.013199999999999998, 0.001188, 88, 110, 132, 23278, 23256, 22, 44, undefined, 1493338776125, 
Sustainer, Armed, 3500, 32.98952000000007, -106.97282999999993, 22, 44, 66, 0.0088, 0.013199999999999998, 0.001188, 88, 110, 132, 23278, 23256, 22, 44, undefined, 1493338776125, 
Booster, Armed, 3600, 32.98953000000007, -106.97281999999993, 23, 46, 69, 0.0092, 0.013799999999999998, 0.001242, 92, 115, 138, 24277, 24254, 23, 46, undefined, 1493338777130, 
Sustainer, Armed, 3600, 32.98953000000007, -106.97281999999993, 23, 46, 69, 0.0092, 0.013799999999999998, 0.001242, 92, 115, 138, 24277, 24254, 23, 46, undefined, 1493338777130, 
Booster, Armed, 3700, 32.989540000000076, -106.97280999999992, 24, 48, 72, 0.0096, 0.014399999999999998, 0.001296, 96, 120, 144, 25276, 25252, 24, 48, undefined, 1493338778141, 
Sustainer, Armed, 3700, 32.989540000000076, -106.97280999999992, 24, 48, 72, 0.0096, 0.014399999999999998, 0.001296, 96, 120, 144, 25276, 25252, 24, 48, undefined, 1493338778141, 
Booster, Armed, 3800, 32.98955000000008, -106.97279999999992, 25, 50, 75, 0.009999999999999998, 0.014999999999999998, 0.00135, 100, 125, 150, 26275, 26250, 25, 50, undefined, 1493338779148, 
Sustainer, Armed, 3800, 32.98955000000008, -106.97279999999992, 25, 50, 75, 0.009999999999999998, 0.014999999999999998, 0.00135, 100, 125, 150, 26275, 26250, 25, 50, undefined, 1493338779148, 
Booster, Armed, 3900, 32.98956000000008, -106.97278999999992, 26, 52, 78, 0.010399999999999998, 0.015599999999999998, 0.001404, 104, 130, 156, 27274, 27248, 26, 52, undefined, 1493338780159, 
Sustainer, Armed, 3900, 32.98956000000008, -106.97278999999992, 26, 52, 78, 0.010399999999999998, 0.015599999999999998, 0.001404, 104, 130, 156, 27274, 27248, 26, 52, undefined, 1493338780160, 
Booster, Armed, 4000, 32.989570000000086, -106.97277999999991, 27, 54, 81, 0.010799999999999997, 0.0162, 0.001458, 108, 135, 162, 28273, 28246, 27, 54, undefined, 1493338781167, 
Sustainer, Armed, 4000, 32.989570000000086, -106.97277999999991, 27, 54, 81, 0.010799999999999997, 0.0162, 0.001458, 108, 135, 162, 28273, 28246, 27, 54, undefined, 1493338781167, 
Booster, Armed, 4100, 32.98958000000009, -106.97276999999991, 28, 56, 84, 0.011199999999999996, 0.0168, 0.001512, 112, 140, 168, 29272, 29244, 28, 56, undefined, 1493338782179, 
Sustainer, Armed, 4100, 32.98958000000009, -106.97276999999991, 28, 56, 84, 0.011199999999999996, 0.0168, 0.001512, 112, 140, 168, 29272, 29244, 28, 56, undefined, 1493338782179, 
Booster, Armed, 4200, 32.98959000000009, -106.97275999999991, 29, 58, 87, 0.011599999999999996, 0.0174, 0.0015660000000000001, 116, 145, 174, 30271, 30242, 29, 58, undefined, 1493338783198, 
Sustainer, Armed, 4200, 32.98959000000009, -106.97275999999991, 29, 58, 87, 0.011599999999999996, 0.0174, 0.0015660000000000001, 116, 145, 174, 30271, 30242, 29, 58, undefined, 1493338783198, 
Booster, Armed, 4300, 32.989600000000095, -106.9727499999999, 30, 60, 90, 0.011999999999999995, 0.018, 0.0016200000000000001, 120, 150, 180, 31270, 31240, 30, 60, undefined, 1493338784217, 
Sustainer, Armed, 4300, 32.989600000000095, -106.9727499999999, 30, 60, 90, 0.011999999999999995, 0.018, 0.0016200000000000001, 120, 150, 180, 31270, 31240, 30, 60, undefined, 1493338784217, 
Booster, Armed, 4400, 32.9896100000001, -106.9727399999999, 31, 62, 93, 0.012399999999999994, 0.0186, 0.0016740000000000001, 124, 155, 186, 32269, 32238, 31, 62, undefined, 1493338785221, 
Sustainer, Armed, 4400, 32.9896100000001, -106.9727399999999, 31, 62, 93, 0.012399999999999994, 0.0186, 0.0016740000000000001, 124, 155, 186, 32269, 32238, 31, 62, undefined, 1493338785221, 
Booster, Armed, 4500, 32.9896200000001, -106.9727299999999, 32, 64, 96, 0.012799999999999994, 0.0192, 0.0017280000000000002, 128, 160, 192, 33268, 33236, 32, 64, undefined, 1493338786239, 
Sustainer, Armed, 4500, 32.9896200000001, -106.9727299999999, 32, 64, 96, 0.012799999999999994, 0.0192, 0.0017280000000000002, 128, 160, 192, 33268, 33236, 32, 64, undefined, 1493338786239, 
Booster, Armed, 4600, 32.989630000000105, -106.9727199999999, 33, 66, 99, 0.013199999999999993, 0.019799999999999998, 0.0017820000000000002, 132, 165, 198, 34267, 34234, 33, 66, undefined, 1493338787258, 
Sustainer, Armed, 4600, 32.989630000000105, -106.9727199999999, 33, 66, 99, 0.013199999999999993, 0.019799999999999998, 0.0017820000000000002, 132, 165, 198, 34267, 34234, 33, 66, undefined, 1493338787258, 
Booster, Armed, 4700, 32.98964000000011, -106.97270999999989, 34, 68, 102, 0.013599999999999992, 0.020399999999999998, 0.0018360000000000002, 136, 170, 204, 35266, 35232, 34, 68, undefined, 1493338788275, 
Sustainer, Armed, 4700, 32.98964000000011, -106.97270999999989, 34, 68, 102, 0.013599999999999992, 0.020399999999999998, 0.0018360000000000002, 136, 170, 204, 35266, 35232, 34, 68, undefined, 1493338788275, 
Booster, Armed, 4800, 32.98965000000011, -106.97269999999989, 35, 70, 105, 0.013999999999999992, 0.020999999999999998, 0.0018900000000000002, 140, 175, 210, 36265, 36230, 35, 70, undefined, 1493338789289, 
Sustainer, Armed, 4800, 32.98965000000011, -106.97269999999989, 35, 70, 105, 0.013999999999999992, 0.020999999999999998, 0.0018900000000000002, 140, 175, 210, 36265, 36230, 35, 70, undefined, 1493338789289, 
Booster, Armed, 4900, 32.989660000000114, -106.97268999999989, 36, 72, 108, 0.014399999999999991, 0.021599999999999998, 0.0019440000000000002, 144, 180, 216, 37264, 37228, 36, 72, undefined, 1493338790295, 
Sustainer, Armed, 4900, 32.989660000000114, -106.97268999999989, 36, 72, 108, 0.014399999999999991, 0.021599999999999998, 0.0019440000000000002, 144, 180, 216, 37264, 37228, 36, 72, undefined, 1493338790295, 
Booster, Armed, 5000, 32.98967000000012, -106.97267999999988, 37, 74, 111, 0.01479999999999999, 0.022199999999999998, 0.001998, 148, 185, 222, 38263, 38226, 37, 74, undefined, 1493338791301, 
Sustainer, Armed, 5000, 32.98967000000012, -106.97267999999988, 37, 74, 111, 0.01479999999999999, 0.022199999999999998, 0.001998, 148, 185, 222, 38263, 38226, 37, 74, undefined, 1493338791301, 
Booster, Armed, 5100, 32.98968000000012, -106.97266999999988, 38, 76, 114, 0.01519999999999999, 0.022799999999999997, 0.002052, 152, 190, 228, 39262, 39224, 38, 76, undefined, 1493338792321, 
Sustainer, Armed, 5100, 32.98968000000012, -106.97266999999988, 38, 76, 114, 0.01519999999999999, 0.022799999999999997, 0.002052, 152, 190, 228, 39262, 39224, 38, 76, undefined, 1493338792321, 
Booster, Armed, 5200, 32.989690000000124, -106.97265999999988, 39, 78, 117, 0.015599999999999989, 0.023399999999999997, 0.002106, 156, 195, 234, 40261, 40222, 39, 78, undefined, 1493338793332, 
Sustainer, Armed, 5200, 32.989690000000124, -106.97265999999988, 39, 78, 117, 0.015599999999999989, 0.023399999999999997, 0.002106, 156, 195, 234, 40261, 40222, 39, 78, undefined, 1493338793332, 
Booster, Armed, 5300, 32.98970000000013, -106.97264999999987, 40, 80, 120, 0.01599999999999999, 0.023999999999999997, 0.0021599999999999996, 160, 200, 240, 41260, 41220, 40, 80, undefined, 1493338794343, 
Sustainer, Armed, 5300, 32.98970000000013, -106.97264999999987, 40, 80, 120, 0.01599999999999999, 0.023999999999999997, 0.0021599999999999996, 160, 200, 240, 41260, 41220, 40, 80, undefined, 1493338794343, 
Booster, Armed, 5400, 32.98971000000013, -106.97263999999987, 41, 82, 123, 0.01639999999999999, 0.024599999999999997, 0.0022139999999999994, 164, 205, 246, 42259, 42218, 41, 82, undefined, 1493338795357, 
Sustainer, Armed, 5400, 32.98971000000013, -106.97263999999987, 41, 82, 123, 0.01639999999999999, 0.024599999999999997, 0.0022139999999999994, 164, 205, 246, 42259, 42218, 41, 82, undefined, 1493338795358, 
Booster, Armed, 5500, 32.98972000000013, -106.97262999999987, 42, 84, 126, 0.016799999999999992, 0.025199999999999997, 0.002267999999999999, 168, 210, 252, 43258, 43216, 42, 84, undefined, 1493338796377, 
Sustainer, Armed, 5500, 32.98972000000013, -106.97262999999987, 42, 84, 126, 0.016799999999999992, 0.025199999999999997, 0.002267999999999999, 168, 210, 252, 43258, 43216, 42, 84, undefined, 1493338796377, 
Booster, Armed, 5600, 32.98973000000014, -106.97261999999986, 43, 86, 129, 0.017199999999999993, 0.025799999999999997, 0.002321999999999999, 172, 215, 258, 44257, 44214, 43, 86, undefined, 1493338797395, 
Sustainer, Armed, 5600, 32.98973000000014, -106.97261999999986, 43, 86, 129, 0.017199999999999993, 0.025799999999999997, 0.002321999999999999, 172, 215, 258, 44257, 44214, 43, 86, undefined, 1493338797395, 
Booster, Armed, 5700, 32.98974000000014, -106.97260999999986, 44, 88, 132, 0.017599999999999994, 0.026399999999999996, 0.0023759999999999988, 176, 220, 264, 45256, 45212, 44, 88, undefined, 1493338798412, 
Sustainer, Armed, 5700, 32.98974000000014, -106.97260999999986, 44, 88, 132, 0.017599999999999994, 0.026399999999999996, 0.0023759999999999988, 176, 220, 264, 45256, 45212, 44, 88, undefined, 1493338798412, 
Booster, Armed, 5800, 32.98975000000014, -106.97259999999986, 45, 90, 135, 0.017999999999999995, 0.026999999999999996, 0.0024299999999999986, 180, 225, 270, 46255, 46210, 45, 90, undefined, 1493338799440, 
Sustainer, Armed, 5800, 32.98975000000014, -106.97259999999986, 45, 90, 135, 0.017999999999999995, 0.026999999999999996, 0.0024299999999999986, 180, 225, 270, 46255, 46210, 45, 90, undefined, 1493338799440, 
Booster, Armed, 5900, 32.989760000000146, -106.97258999999985, 46, 92, 138, 0.018399999999999996, 0.027599999999999996, 0.0024839999999999984, 184, 230, 276, 47254, 47208, 46, 92, undefined, 1493338800459, 
Sustainer, Armed, 5900, 32.989760000000146, -106.97258999999985, 46, 92, 138, 0.018399999999999996, 0.027599999999999996, 0.0024839999999999984, 184, 230, 276, 47254, 47208, 46, 92, undefined, 1493338800459, 
Booster, Armed, 6000, 32.98977000000015, -106.97257999999985, 47, 94, 141, 0.018799999999999997, 0.028199999999999996, 0.002537999999999998, 188, 235, 282, 48253, 48206, 47, 94, undefined, 1493338801470, 
Sustainer, Armed, 6000, 32.98977000000015, -106.97257999999985, 47, 94, 141, 0.018799999999999997, 0.028199999999999996, 0.002537999999999998, 188, 235, 282, 48253, 48206, 47, 94, undefined, 1493338801471, 
Booster, Armed, 6100, 32.98978000000015, -106.97256999999985, 48, 96, 144, 0.0192, 0.028799999999999996, 0.002591999999999998, 192, 240, 288, 49252, 49204, 48, 96, undefined, 1493338802490, 
Sustainer, Armed, 6100, 32.98978000000015, -106.97256999999985, 48, 96, 144, 0.0192, 0.028799999999999996, 0.002591999999999998, 192, 240, 288, 49252, 49204, 48, 96, undefined, 1493338802490, 
Booster, Armed, 6200, 32.989790000000156, -106.97255999999985, 49, 98, 147, 0.0196, 0.029399999999999996, 0.0026459999999999977, 196, 245, 294, 50251, 50202, 49, 98, undefined, 1493338803501, 
Sustainer, Armed, 6200, 32.989790000000156, -106.97255999999985, 49, 98, 147, 0.0196, 0.029399999999999996, 0.0026459999999999977, 196, 245, 294, 50251, 50202, 49, 98, undefined, 1493338803501, 
Booster, Armed, 6300, 32.98980000000016, -106.97254999999984, 50, 100, 150, 0.02, 0.029999999999999995, 0.0026999999999999975, 200, 250, 300, 51250, 51200, 50, 100, undefined, 1493338804522, 
Sustainer, Armed, 6300, 32.98980000000016, -106.97254999999984, 50, 100, 150, 0.02, 0.029999999999999995, 0.0026999999999999975, 200, 250, 300, 51250, 51200, 50, 100, undefined, 1493338804522, 
Booster, Armed, 6400, 32.98981000000016, -106.97253999999984, 51, 102, 153, 0.0204, 0.030599999999999995, 0.0027539999999999973, 204, 255, 306, 52249, 52198, 51, 102, undefined, 1493338805538, 
Sustainer, Armed, 6400, 32.98981000000016, -106.97253999999984, 51, 102, 153, 0.0204, 0.030599999999999995, 0.0027539999999999973, 204, 255, 306, 52249, 52198, 51, 102, undefined, 1493338805538, 
Booster, Armed, 6500, 32.989820000000165, -106.97252999999984, 52, 104, 156, 0.020800000000000003, 0.031199999999999995, 0.002807999999999997, 208, 260, 312, 53248, 53196, 52, 104, undefined, 1493338806546, 
Sustainer, Armed, 6500, 32.989820000000165, -106.97252999999984, 52, 104, 156, 0.020800000000000003, 0.031199999999999995, 0.002807999999999997, 208, 260, 312, 53248, 53196, 52, 104, undefined, 1493338806546, 
Booster, Armed, 6600, 32.98983000000017, -106.97251999999983, 53, 106, 159, 0.021200000000000004, 0.031799999999999995, 0.002861999999999997, 212, 265, 318, 54247, 54194, 53, 106, undefined, 1493338807564, 
Sustainer, Armed, 6600, 32.98983000000017, -106.97251999999983, 53, 106, 159, 0.021200000000000004, 0.031799999999999995, 0.002861999999999997, 212, 265, 318, 54247, 54194, 53, 106, undefined, 1493338807564, 
Booster, Armed, 6700, 32.98984000000017, -106.97250999999983, 54, 108, 162, 0.021600000000000005, 0.0324, 0.0029159999999999967, 216, 270, 324, 55246, 55192, 54, 108, undefined, 1493338808573, 
Sustainer, Armed, 6700, 32.98984000000017, -106.97250999999983, 54, 108, 162, 0.021600000000000005, 0.0324, 0.0029159999999999967, 216, 270, 324, 55246, 55192, 54, 108, undefined, 1493338808573, 
Booster, Armed, 6800, 32.989850000000175, -106.97249999999983, 55, 110, 165, 0.022000000000000006, 0.033, 0.0029699999999999965, 220, 275, 330, 56245, 56190, 55, 110, undefined, 1493338809581, 
Sustainer, Armed, 6800, 32.989850000000175, -106.97249999999983, 55, 110, 165, 0.022000000000000006, 0.033, 0.0029699999999999965, 220, 275, 330, 56245, 56190, 55, 110, undefined, 1493338809581, 
Booster, Armed, 6900, 32.98986000000018, -106.97248999999982, 56, 112, 168, 0.022400000000000007, 0.033600000000000005, 0.0030239999999999963, 224, 280, 336, 57244, 57188, 56, 112, undefined, 1493338810593, 
Sustainer, Armed, 6900, 32.98986000000018, -106.97248999999982, 56, 112, 168, 0.022400000000000007, 0.033600000000000005, 0.0030239999999999963, 224, 280, 336, 57244, 57188, 56, 112, undefined, 1493338810593, 
Booster, Armed, 7000, 32.98987000000018, -106.97247999999982, 57, 114, 171, 0.022800000000000008, 0.03420000000000001, 0.003077999999999996, 228, 285, 342, 58243, 58186, 57, 114, undefined, 1493338811599, 
Sustainer, Armed, 7000, 32.98987000000018, -106.97247999999982, 57, 114, 171, 0.022800000000000008, 0.03420000000000001, 0.003077999999999996, 228, 285, 342, 58243, 58186, 57, 114, undefined, 1493338811599, 
Booster, Armed, 7100, 32.989880000000184, -106.97246999999982, 58, 116, 174, 0.02320000000000001, 0.03480000000000001, 0.003131999999999996, 232, 290, 348, 59242, 59184, 58, 116, undefined, 1493338812608, 
Sustainer, Armed, 7100, 32.989880000000184, -106.97246999999982, 58, 116, 174, 0.02320000000000001, 0.03480000000000001, 0.003131999999999996, 232, 290, 348, 59242, 59184, 58, 116, undefined, 1493338812608, 
Booster, Armed, 7200, 32.98989000000019, -106.97245999999981, 59, 118, 177, 0.02360000000000001, 0.035400000000000015, 0.0031859999999999957, 236, 295, 354, 60241, 60182, 59, 118, undefined, 1493338813616, 
Sustainer, Armed, 7200, 32.98989000000019, -106.97245999999981, 59, 118, 177, 0.02360000000000001, 0.035400000000000015, 0.0031859999999999957, 236, 295, 354, 60241, 60182, 59, 118, undefined, 1493338813616, 
Booster, Armed, 7300, 32.98990000000019, -106.97244999999981, 60, 120, 180, 0.02400000000000001, 0.03600000000000002, 0.0032399999999999955, 240, 300, 360, 61240, 61180, 60, 120, undefined, 1493338814620, 
Sustainer, Armed, 7300, 32.98990000000019, -106.97244999999981, 60, 120, 180, 0.02400000000000001, 0.03600000000000002, 0.0032399999999999955, 240, 300, 360, 61240, 61180, 60, 120, undefined, 1493338814620, 
Booster, Armed, 7400, 32.989910000000194, -106.9724399999998, 61, 122, 183, 0.024400000000000012, 0.03660000000000002, 0.0032939999999999953, 244, 305, 366, 62239, 62178, 61, 122, undefined, 1493338815639, 
Sustainer, Armed, 7400, 32.989910000000194, -106.9724399999998, 61, 122, 183, 0.024400000000000012, 0.03660000000000002, 0.0032939999999999953, 244, 305, 366, 62239, 62178, 61, 122, undefined, 1493338815639, 
Booster, Armed, 7500, 32.9899200000002, -106.9724299999998, 62, 124, 186, 0.024800000000000013, 0.037200000000000025, 0.003347999999999995, 248, 310, 372, 63238, 63176, 62, 124, undefined, 1493338816655, 
Sustainer, Armed, 7500, 32.9899200000002, -106.9724299999998, 62, 124, 186, 0.024800000000000013, 0.037200000000000025, 0.003347999999999995, 248, 310, 372, 63238, 63176, 62, 124, undefined, 1493338816655, 
Booster, Armed, 7600, 32.9899300000002, -106.9724199999998, 63, 126, 189, 0.025200000000000014, 0.03780000000000003, 0.003401999999999995, 252, 315, 378, 64237, 64174, 63, 126, undefined, 1493338817674, 
Sustainer, Armed, 7600, 32.9899300000002, -106.9724199999998, 63, 126, 189, 0.025200000000000014, 0.03780000000000003, 0.003401999999999995, 252, 315, 378, 64237, 64174, 63, 126, undefined, 1493338817674, 
Booster, Armed, 7700, 32.9899400000002, -106.9724099999998, 64, 128, 192, 0.025600000000000015, 0.03840000000000003, 0.0034559999999999947, 256, 320, 384, 65236, 65172, 64, 128, undefined, 1493338818692, 
Sustainer, Armed, 7700, 32.9899400000002, -106.9724099999998, 64, 128, 192, 0.025600000000000015, 0.03840000000000003, 0.0034559999999999947, 256, 320, 384, 65236, 65172, 64, 128, undefined, 1493338818692, 
Booster, Armed, 7800, 32.989950000000206, -106.9723999999998, 65, 130, 195, 0.026000000000000016, 0.039000000000000035, 0.0035099999999999945, 260, 325, 390, 66235, 66170, 65, 130, undefined, 1493338819706, 
Sustainer, Armed, 7800, 32.989950000000206, -106.9723999999998, 65, 130, 195, 0.026000000000000016, 0.039000000000000035, 0.0035099999999999945, 260, 325, 390, 66235, 66170, 65, 130, undefined, 1493338819706, 
Booster, Armed, 7900, 32.98996000000021, -106.97238999999979, 66, 132, 198, 0.026400000000000017, 0.03960000000000004, 0.0035639999999999943, 264, 330, 396, 67234, 67168, 66, 132, undefined, 1493338820721, 
Sustainer, Armed, 7900, 32.98996000000021, -106.97238999999979, 66, 132, 198, 0.026400000000000017, 0.03960000000000004, 0.0035639999999999943, 264, 330, 396, 67234, 67168, 66, 132, undefined, 1493338820721, 
Booster, Armed, 8000, 32.98997000000021, -106.97237999999979, 67, 134, 201, 0.026800000000000018, 0.04020000000000004, 0.003617999999999994, 268, 335, 402, 68233, 68166, 67, 134, undefined, 1493338821746, 
Sustainer, Armed, 8000, 32.98997000000021, -106.97237999999979, 67, 134, 201, 0.026800000000000018, 0.04020000000000004, 0.003617999999999994, 268, 335, 402, 68233, 68166, 67, 134, undefined, 1493338821747, 
Booster, Armed, 8100, 32.989980000000216, -106.97236999999978, 68, 136, 204, 0.02720000000000002, 0.040800000000000045, 0.003671999999999994, 272, 340, 408, 69232, 69164, 68, 136, undefined, 1493338822753, 
Sustainer, Armed, 8100, 32.989980000000216, -106.97236999999978, 68, 136, 204, 0.02720000000000002, 0.040800000000000045, 0.003671999999999994, 272, 340, 408, 69232, 69164, 68, 136, undefined, 1493338822753, 
Booster, Armed, 8200, 32.98999000000022, -106.97235999999978, 69, 138, 207, 0.02760000000000002, 0.04140000000000005, 0.0037259999999999936, 276, 345, 414, 70231, 70162, 69, 138, undefined, 1493338823762, 
Sustainer, Armed, 8200, 32.98999000000022, -106.97235999999978, 69, 138, 207, 0.02760000000000002, 0.04140000000000005, 0.0037259999999999936, 276, 345, 414, 70231, 70162, 69, 138, undefined, 1493338823762, 
Booster, Armed, 8300, 32.99000000000022, -106.97234999999978, 70, 140, 210, 0.02800000000000002, 0.04200000000000005, 0.0037799999999999934, 280, 350, 420, 71230, 71160, 70, 140, undefined, 1493338824774, 
Sustainer, Armed, 8300, 32.99000000000022, -106.97234999999978, 70, 140, 210, 0.02800000000000002, 0.04200000000000005, 0.0037799999999999934, 280, 350, 420, 71230, 71160, 70, 140, undefined, 1493338824774, 
Booster, Armed, 8400, 32.990010000000225, -106.97233999999978, 71, 142, 213, 0.028400000000000022, 0.042600000000000054, 0.0038339999999999932, 284, 355, 426, 72229, 72158, 71, 142, undefined, 1493338825788, 
Sustainer, Armed, 8400, 32.990010000000225, -106.97233999999978, 71, 142, 213, 0.028400000000000022, 0.042600000000000054, 0.0038339999999999932, 284, 355, 426, 72229, 72158, 71, 142, undefined, 1493338825788, 
Booster, Armed, 8500, 32.99002000000023, -106.97232999999977, 72, 144, 216, 0.028800000000000023, 0.04320000000000006, 0.003887999999999993, 288, 360, 432, 73228, 73156, 72, 144, undefined, 1493338826796, 
Sustainer, Armed, 8500, 32.99002000000023, -106.97232999999977, 72, 144, 216, 0.028800000000000023, 0.04320000000000006, 0.003887999999999993, 288, 360, 432, 73228, 73156, 72, 144, undefined, 1493338826796, 
Booster, Armed, 8600, 32.99003000000023, -106.97231999999977, 73, 146, 219, 0.029200000000000025, 0.04380000000000006, 0.003941999999999993, 292, 365, 438, 74227, 74154, 73, 146, undefined, 1493338827802, 
Sustainer, Armed, 8600, 32.99003000000023, -106.97231999999977, 73, 146, 219, 0.029200000000000025, 0.04380000000000006, 0.003941999999999993, 292, 365, 438, 74227, 74154, 73, 146, undefined, 1493338827802, 
Booster, Armed, 8700, 32.990040000000235, -106.97230999999977, 74, 148, 222, 0.029600000000000026, 0.044400000000000064, 0.0039959999999999935, 296, 370, 444, 75226, 75152, 74, 148, undefined, 1493338828818, 
Sustainer, Armed, 8700, 32.990040000000235, -106.97230999999977, 74, 148, 222, 0.029600000000000026, 0.044400000000000064, 0.0039959999999999935, 296, 370, 444, 75226, 75152, 74, 148, undefined, 1493338828818, 
Booster, Armed, 8800, 32.99005000000024, -106.97229999999976, 75, 150, 225, 0.030000000000000027, 0.04500000000000007, 0.004049999999999994, 300, 375, 450, 76225, 76150, 75, 150, undefined, 1493338829835, 
Sustainer, Armed, 8800, 32.99005000000024, -106.97229999999976, 75, 150, 225, 0.030000000000000027, 0.04500000000000007, 0.004049999999999994, 300, 375, 450, 76225, 76150, 75, 150, undefined, 1493338829835, 
Booster, Armed, 8900, 32.99006000000024, -106.97228999999976, 76, 152, 228, 0.030400000000000028, 0.04560000000000007, 0.004103999999999994, 304, 380, 456, 77224, 77148, 76, 152, undefined, 1493338830840, 
Sustainer, Armed, 8900, 32.99006000000024, -106.97228999999976, 76, 152, 228, 0.030400000000000028, 0.04560000000000007, 0.004103999999999994, 304, 380, 456, 77224, 77148, 76, 152, undefined, 1493338830840, 
Booster, Armed, 9000, 32.990070000000244, -106.97227999999976, 77, 154, 231, 0.03080000000000003, 0.046200000000000074, 0.004157999999999994, 308, 385, 462, 78223, 78146, 77, 154, undefined, 1493338831849, 
Sustainer, Armed, 9000, 32.990070000000244, -106.97227999999976, 77, 154, 231, 0.03080000000000003, 0.046200000000000074, 0.004157999999999994, 308, 385, 462, 78223, 78146, 77, 154, undefined, 1493338831849, 
Booster, Armed, 9100, 32.99008000000025, -106.97226999999975, 78, 156, 234, 0.03120000000000003, 0.04680000000000008, 0.004211999999999994, 312, 390, 468, 79222, 79144, 78, 156, undefined, 1493338832857, 
Sustainer, Armed, 9100, 32.99008000000025, -106.97226999999975, 78, 156, 234, 0.03120000000000003, 0.04680000000000008, 0.004211999999999994, 312, 390, 468, 79222, 79144, 78, 156, undefined, 1493338832858, 
Booster, Armed, 9200, 32.99009000000025, -106.97225999999975, 79, 158, 237, 0.03160000000000003, 0.04740000000000008, 0.004265999999999995, 316, 395, 474, 80221, 80142, 79, 158, undefined, 1493338833875, 
Sustainer, Armed, 9200, 32.99009000000025, -106.97225999999975, 79, 158, 237, 0.03160000000000003, 0.04740000000000008, 0.004265999999999995, 316, 395, 474, 80221, 80142, 79, 158, undefined, 1493338833875, 
Booster, Armed, 9300, 32.990100000000254, -106.97224999999975, 80, 160, 240, 0.03200000000000003, 0.048000000000000084, 0.004319999999999995, 320, 400, 480, 81220, 81140, 80, 160, undefined, 1493338834883, 
Sustainer, Armed, 9300, 32.990100000000254, -106.97224999999975, 80, 160, 240, 0.03200000000000003, 0.048000000000000084, 0.004319999999999995, 320, 400, 480, 81220, 81140, 80, 160, undefined, 1493338834883, 
Booster, Armed, 9400, 32.99011000000026, -106.97223999999974, 81, 162, 243, 0.032400000000000026, 0.04860000000000009, 0.004373999999999995, 324, 405, 486, 82219, 82138, 81, 162, undefined, 1493338835888, 
Sustainer, Armed, 9400, 32.99011000000026, -106.97223999999974, 81, 162, 243, 0.032400000000000026, 0.04860000000000009, 0.004373999999999995, 324, 405, 486, 82219, 82138, 81, 162, undefined, 1493338835888, 
Booster, Armed, 9500, 32.99012000000026, -106.97222999999974, 82, 164, 246, 0.032800000000000024, 0.04920000000000009, 0.004427999999999995, 328, 410, 492, 83218, 83136, 82, 164, undefined, 1493338836894, 
Sustainer, Armed, 9500, 32.99012000000026, -106.97222999999974, 82, 164, 246, 0.032800000000000024, 0.04920000000000009, 0.004427999999999995, 328, 410, 492, 83218, 83136, 82, 164, undefined, 1493338836894, 
Booster, Armed, 9600, 32.99013000000026, -106.97221999999974, 83, 166, 249, 0.03320000000000002, 0.049800000000000094, 0.0044819999999999955, 332, 415, 498, 84217, 84134, 83, 166, undefined, 1493338837898, 
Sustainer, Armed, 9600, 32.99013000000026, -106.97221999999974, 83, 166, 249, 0.03320000000000002, 0.049800000000000094, 0.0044819999999999955, 332, 415, 498, 84217, 84134, 83, 166, undefined, 1493338837898, 
Booster, Armed, 9700, 32.99014000000027, -106.97220999999973, 84, 168, 252, 0.03360000000000002, 0.0504000000000001, 0.004535999999999996, 336, 420, 504, 85216, 85132, 84, 168, undefined, 1493338838906, 
Sustainer, Armed, 9700, 32.99014000000027, -106.97220999999973, 84, 168, 252, 0.03360000000000002, 0.0504000000000001, 0.004535999999999996, 336, 420, 504, 85216, 85132, 84, 168, undefined, 1493338838906, 
Booster, Armed, 9800, 32.99015000000027, -106.97219999999973, 85, 170, 255, 0.034000000000000016, 0.0510000000000001, 0.004589999999999996, 340, 425, 510, 86215, 86130, 85, 170, undefined, 1493338839918, 
Sustainer, Armed, 9800, 32.99015000000027, -106.97219999999973, 85, 170, 255, 0.034000000000000016, 0.0510000000000001, 0.004589999999999996, 340, 425, 510, 86215, 86130, 85, 170, undefined, 1493338839918, 
Booster, Armed, 9900, 32.99016000000027, -106.97218999999973, 86, 172, 258, 0.034400000000000014, 0.051600000000000104, 0.004643999999999996, 344, 430, 516, 87214, 87128, 86, 172, undefined, 1493338840928, 
Sustainer, Armed, 9900, 32.99016000000027, -106.97218999999973, 86, 172, 258, 0.034400000000000014, 0.051600000000000104, 0.004643999999999996, 344, 430, 516, 87214, 87128, 86, 172, undefined, 1493338840928, 
Booster, Armed, 10000, 32.990170000000276, -106.97217999999972, 87, 174, 261, 0.03480000000000001, 0.05220000000000011, 0.0046979999999999964, 348, 435, 522, 88213, 88126, 87, 174, undefined, 1493338841946, 
Sustainer, Armed, 10000, 32.990170000000276, -106.97217999999972, 87, 174, 261, 0.03480000000000001, 0.05220000000000011, 0.0046979999999999964, 348, 435, 522, 88213, 88126, 87, 174, undefined, 1493338841946, 
Booster, Armed, 10100, 32.99018000000028, -106.97216999999972, 88, 176, 264, 0.03520000000000001, 0.05280000000000011, 0.004751999999999997, 352, 440, 528, 89212, 89124, 88, 176, undefined, 1493338842953, 
Sustainer, Armed, 10100, 32.99018000000028, -106.97216999999972, 88, 176, 264, 0.03520000000000001, 0.05280000000000011, 0.004751999999999997, 352, 440, 528, 89212, 89124, 88, 176, undefined, 1493338842954, 
Booster, Armed, 10200, 32.99019000000028, -106.97215999999972, 89, 178, 267, 0.03560000000000001, 0.053400000000000114, 0.004805999999999997, 356, 445, 534, 90211, 90122, 89, 178, undefined, 1493338843957, 
Sustainer, Armed, 10200, 32.99019000000028, -106.97215999999972, 89, 178, 267, 0.03560000000000001, 0.053400000000000114, 0.004805999999999997, 356, 445, 534, 90211, 90122, 89, 178, undefined, 1493338843957, 
Booster, Armed, 10300, 32.990200000000286, -106.97214999999971, 90, 180, 270, 0.036000000000000004, 0.05400000000000012, 0.004859999999999997, 360, 450, 540, 91210, 91120, 90, 180, undefined, 1493338844969, 
Sustainer, Armed, 10300, 32.990200000000286, -106.97214999999971, 90, 180, 270, 0.036000000000000004, 0.05400000000000012, 0.004859999999999997, 360, 450, 540, 91210, 91120, 90, 180, undefined, 1493338844970, 
