part, mode, altitude, latitude, longitude, accelerometer_x, accelerometer_y, accelerometer_z, yaw, pitch, roll, magnetometer_x, magnetometer_y, magnetometer_z, gps_altitude, kalman_altitude, kalman_velocity, ematch_status, temperature, timestamp
Booster, Armed, 1400, 32.98931, -106.97304, 1, 2, 3, 0.0004, 0.0006, 0.000054, 4, 5, 6, 2299, 2298, 1, 2, undefined, 1493339151128, 
Sustainer, Armed, 1400, 32.98931, -106.97304, 1, 2, 3, 0.0004, 0.0006, 0.000054, 4, 5, 6, 2299, 2298, 1, 2, undefined, 1493339151128, 
Booster, Armed, 1500, 32.989320000000006, -106.97303, 2, 4, 6, 0.0008, 0.0012, 0.000108, 8, 10, 12, 3298, 3296, 2, 4, undefined, 1493339152149, 
Sustainer, Armed, 1500, 32.989320000000006, -106.97303, 2, 4, 6, 0.0008, 0.0012, 0.000108, 8, 10, 12, 3298, 3296, 2, 4, undefined, 1493339152149, 
Booster, Armed, 1600, 32.98933000000001, -106.97301999999999, 3, 6, 9, 0.0012000000000000001, 0.0018, 0.00016199999999999998, 12, 15, 18, 4297, 4294, 3, 6, undefined, 1493339153166, 
Sustainer, Armed, 1600, 32.98933000000001, -106.97301999999999, 3, 6, 9, 0.0012000000000000001, 0.0018, 0.00016199999999999998, 12, 15, 18, 4297, 4294, 3, 6, undefined, 1493339153166, 
Booster, Armed, 1700, 32.98934000000001, -106.97300999999999, 4, 8, 12, 0.0016, 0.0024, 0.000216, 16, 20, 24, 5296, 5292, 4, 8, undefined, 1493339154175, 
Sustainer, Armed, 1700, 32.98934000000001, -106.97300999999999, 4, 8, 12, 0.0016, 0.0024, 0.000216, 16, 20, 24, 5296, 5292, 4, 8, undefined, 1493339154175, 
Booster, Armed, 1800, 32.989350000000016, -106.97299999999998, 5, 10, 15, 0.002, 0.0029999999999999996, 0.00027, 20, 25, 30, 6295, 6290, 5, 10, undefined, 1493339155183, 
Sustainer, Armed, 1800, 32.989350000000016, -106.97299999999998, 5, 10, 15, 0.002, 0.0029999999999999996, 0.00027, 20, 25, 30, 6295, 6290, 5, 10, undefined, 1493339155183, 
Booster, Armed, 1900, 32.98936000000002, -106.97298999999998, 6, 12, 18, 0.0024000000000000002, 0.0035999999999999995, 0.000324, 24, 30, 36, 7294, 7288, 6, 12, undefined, 1493339156201, 
Sustainer, Armed, 1900, 32.98936000000002, -106.97298999999998, 6, 12, 18, 0.0024000000000000002, 0.0035999999999999995, 0.000324, 24, 30, 36, 7294, 7288, 6, 12, undefined, 1493339156201, 
Booster, Armed, 2000, 32.98937000000002, -106.97297999999998, 7, 14, 21, 0.0028000000000000004, 0.0042, 0.000378, 28, 35, 42, 8293, 8286, 7, 14, undefined, 1493339157222, 
Sustainer, Armed, 2000, 32.98937000000002, -106.97297999999998, 7, 14, 21, 0.0028000000000000004, 0.0042, 0.000378, 28, 35, 42, 8293, 8286, 7, 14, undefined, 1493339157222, 
Booster, Armed, 2100, 32.989380000000025, -106.97296999999998, 8, 16, 24, 0.0032000000000000006, 0.0048, 0.00043200000000000004, 32, 40, 48, 9292, 9284, 8, 16, undefined, 1493339158236, 
Sustainer, Armed, 2100, 32.989380000000025, -106.97296999999998, 8, 16, 24, 0.0032000000000000006, 0.0048, 0.00043200000000000004, 32, 40, 48, 9292, 9284, 8, 16, undefined, 1493339158236, 
Booster, Armed, 2200, 32.98939000000003, -106.97295999999997, 9, 18, 27, 0.0036000000000000008, 0.005399999999999999, 0.00048600000000000005, 36, 45, 54, 10291, 10282, 9, 18, undefined, 1493339159254, 
Sustainer, Armed, 2200, 32.98939000000003, -106.97295999999997, 9, 18, 27, 0.0036000000000000008, 0.005399999999999999, 0.00048600000000000005, 36, 45, 54, 10291, 10282, 9, 18, undefined, 1493339159254, 
Booster, Armed, 2300, 32.98940000000003, -106.97294999999997, 10, 20, 30, 0.004000000000000001, 0.005999999999999999, 0.00054, 40, 50, 60, 11290, 11280, 10, 20, undefined, 1493339160270, 
Sustainer, Armed, 2300, 32.98940000000003, -106.97294999999997, 10, 20, 30, 0.004000000000000001, 0.005999999999999999, 0.00054, 40, 50, 60, 11290, 11280, 10, 20, undefined, 1493339160270, 
Booster, Armed, 2400, 32.989410000000035, -106.97293999999997, 11, 22, 33, 0.004400000000000001, 0.006599999999999999, 0.000594, 44, 55, 66, 12289, 12278, 11, 22, undefined, 1493339161278, 
Sustainer, Armed, 2400, 32.989410000000035, -106.97293999999997, 11, 22, 33, 0.004400000000000001, 0.006599999999999999, 0.000594, 44, 55, 66, 12289, 12278, 11, 22, undefined, 1493339161278, 
Booster, Armed, 2500, 32.98942000000004, -106.97292999999996, 12, 24, 36, 0.004800000000000001, 0.007199999999999999, 0.000648, 48, 60, 72, 13288, 13276, 12, 24, undefined, 1493339162285, 
Sustainer, Armed, 2500, 32.98942000000004, -106.97292999999996, 12, 24, 36, 0.004800000000000001, 0.007199999999999999, 0.000648, 48, 60, 72, 13288, 13276, 12, 24, undefined, 1493339162285, 
Booster, Armed, 2600, 32.98943000000004, -106.97291999999996, 13, 26, 39, 0.0052000000000000015, 0.007799999999999999, 0.000702, 52, 65, 78, 14287, 14274, 13, 26, undefined, 1493339163291, 
Sustainer, Armed, 2600, 32.98943000000004, -106.97291999999996, 13, 26, 39, 0.0052000000000000015, 0.007799999999999999, 0.000702, 52, 65, 78, 14287, 14274, 13, 26, undefined, 1493339163291, 
Booster, Armed, 2700, 32.989440000000045, -106.97290999999996, 14, 28, 42, 0.005600000000000002, 0.0084, 0.000756, 56, 70, 84, 15286, 15272, 14, 28, undefined, 1493339164298, 
Sustainer, Armed, 2700, 32.989440000000045, -106.97290999999996, 14, 28, 42, 0.005600000000000002, 0.0084, 0.000756, 56, 70, 84, 15286, 15272, 14, 28, undefined, 1493339164298, 
Booster, Armed, 2800, 32.98945000000005, -106.97289999999995, 15, 30, 45, 0.006000000000000002, 0.009, 0.0008100000000000001, 60, 75, 90, 16285, 16270, 15, 30, undefined, 1493339165317, 
Sustainer, Armed, 2800, 32.98945000000005, -106.97289999999995, 15, 30, 45, 0.006000000000000002, 0.009, 0.0008100000000000001, 60, 75, 90, 16285, 16270, 15, 30, undefined, 1493339165317, 
Booster, Armed, 2900, 32.98946000000005, -106.97288999999995, 16, 32, 48, 0.006400000000000002, 0.0096, 0.0008640000000000001, 64, 80, 96, 17284, 17268, 16, 32, undefined, 1493339166328, 
Sustainer, Armed, 2900, 32.98946000000005, -106.97288999999995, 16, 32, 48, 0.006400000000000002, 0.0096, 0.0008640000000000001, 64, 80, 96, 17284, 17268, 16, 32, undefined, 1493339166328, 
Booster, Armed, 3000, 32.989470000000054, -106.97287999999995, 17, 34, 51, 0.006800000000000002, 0.010199999999999999, 0.0009180000000000001, 68, 85, 102, 18283, 18266, 17, 34, undefined, 1493339167343, 
Sustainer, Armed, 3000, 32.989470000000054, -106.97287999999995, 17, 34, 51, 0.006800000000000002, 0.010199999999999999, 0.0009180000000000001, 68, 85, 102, 18283, 18266, 17, 34, undefined, 1493339167343, 
Booster, Armed, 3100, 32.98948000000006, -106.97286999999994, 18, 36, 54, 0.007200000000000002, 0.010799999999999999, 0.0009720000000000001, 72, 90, 108, 19282, 19264, 18, 36, undefined, 1493339168352, 
Sustainer, Armed, 3100, 32.98948000000006, -106.97286999999994, 18, 36, 54, 0.007200000000000002, 0.010799999999999999, 0.0009720000000000001, 72, 90, 108, 19282, 19264, 18, 36, undefined, 1493339168352, 
Booster, Armed, 3200, 32.98949000000006, -106.97285999999994, 19, 38, 57, 0.007600000000000003, 0.011399999999999999, 0.001026, 76, 95, 114, 20281, 20262, 19, 38, undefined, 1493339169360, 
Sustainer, Armed, 3200, 32.98949000000006, -106.97285999999994, 19, 38, 57, 0.007600000000000003, 0.011399999999999999, 0.001026, 76, 95, 114, 20281, 20262, 19, 38, undefined, 1493339169360, 
Booster, Armed, 3300, 32.98950000000006, -106.97284999999994, 20, 40, 60, 0.008000000000000002, 0.011999999999999999, 0.00108, 80, 100, 120, 21280, 21260, 20, 40, undefined, 1493339170369, 
Sustainer, Armed, 3300, 32.98950000000006, -106.97284999999994, 20, 40, 60, 0.008000000000000002, 0.011999999999999999, 0.00108, 80, 100, 120, 21280, 21260, 20, 40, undefined, 1493339170369, 
Booster, Armed, 3400, 32.98951000000007, -106.97283999999993, 21, 42, 63, 0.008400000000000001, 0.012599999999999998, 0.001134, 84, 105, 126, 22279, 22258, 21, 42, undefined, 1493339171377, 
Sustainer, Armed, 3400, 32.98951000000007, -106.97283999999993, 21, 42, 63, 0.008400000000000001, 0.012599999999999998, 0.001134, 84, 105, 126, 22279, 22258, 21, 42, undefined, 1493339171377, 
Booster, Armed, 3500, 32.98952000000007, -106.97282999999993, 22, 44, 66, 0.0088, 0.013199999999999998, 0.001188, 88, 110, 132, 23278, 23256, 22, 44, undefined, 1493339172402, 
Sustainer, Armed, 3500, 32.98952000000007, -106.97282999999993, 22, 44, 66, 0.0088, 0.013199999999999998, 0.001188, 88, 110, 132, 23278, 23256, 22, 44, undefined, 1493339172403, 
Booster, Armed, 3600, 32.98953000000007, -106.97281999999993, 23, 46, 69, 0.0092, 0.013799999999999998, 0.001242, 92, 115, 138, 24277, 24254, 23, 46, undefined, 1493339173411, 
Sustainer, Armed, 3600, 32.98953000000007, -106.97281999999993, 23, 46, 69, 0.0092, 0.013799999999999998, 0.001242, 92, 115, 138, 24277, 24254, 23, 46, undefined, 1493339173411, 
Booster, Armed, 3700, 32.989540000000076, -106.97280999999992, 24, 48, 72, 0.0096, 0.014399999999999998, 0.001296, 96, 120, 144, 25276, 25252, 24, 48, undefined, 1493339174417, 
Sustainer, Armed, 3700, 32.989540000000076, -106.97280999999992, 24, 48, 72, 0.0096, 0.014399999999999998, 0.001296, 96, 120, 144, 25276, 25252, 24, 48, undefined, 1493339174417, 
Booster, Armed, 3800, 32.98955000000008, -106.97279999999992, 25, 50, 75, 0.009999999999999998, 0.014999999999999998, 0.00135, 100, 125, 150, 26275, 26250, 25, 50, undefined, 1493339175425, 
Sustainer, Armed, 3800, 32.98955000000008, -106.97279999999992, 25, 50, 75, 0.009999999999999998, 0.014999999999999998, 0.00135, 100, 125, 150, 26275, 26250, 25, 50, undefined, 1493339175425, 
Booster, Armed, 3900, 32.98956000000008, -106.97278999999992, 26, 52, 78, 0.010399999999999998, 0.015599999999999998, 0.001404, 104, 130, 156, 27274, 27248, 26, 52, undefined, 1493339176435, 
Sustainer, Armed, 3900, 32.98956000000008, -106.97278999999992, 26, 52, 78, 0.010399999999999998, 0.015599999999999998, 0.001404, 104, 130, 156, 27274, 27248, 26, 52, undefined, 1493339176435, 
Booster, Armed, 4000, 32.989570000000086, -106.97277999999991, 27, 54, 81, 0.010799999999999997, 0.0162, 0.001458, 108, 135, 162, 28273, 28246, 27, 54, undefined, 1493339177454, 
Sustainer, Armed, 4000, 32.989570000000086, -106.97277999999991, 27, 54, 81, 0.010799999999999997, 0.0162, 0.001458, 108, 135, 162, 28273, 28246, 27, 54, undefined, 1493339177454, 
Booster, Armed, 4100, 32.98958000000009, -106.97276999999991, 28, 56, 84, 0.011199999999999996, 0.0168, 0.001512, 112, 140, 168, 29272, 29244, 28, 56, undefined, 1493339178464, 
Sustainer, Armed, 4100, 32.98958000000009, -106.97276999999991, 28, 56, 84, 0.011199999999999996, 0.0168, 0.001512, 112, 140, 168, 29272, 29244, 28, 56, undefined, 1493339178464, 
Booster, Armed, 4200, 32.98959000000009, -106.97275999999991, 29, 58, 87, 0.011599999999999996, 0.0174, 0.0015660000000000001, 116, 145, 174, 30271, 30242, 29, 58, undefined, 1493339179472, 
Sustainer, Armed, 4200, 32.98959000000009, -106.97275999999991, 29, 58, 87, 0.011599999999999996, 0.0174, 0.0015660000000000001, 116, 145, 174, 30271, 30242, 29, 58, undefined, 1493339179472, 
Booster, Armed, 4300, 32.989600000000095, -106.9727499999999, 30, 60, 90, 0.011999999999999995, 0.018, 0.0016200000000000001, 120, 150, 180, 31270, 31240, 30, 60, undefined, 1493339180492, 
Sustainer, Armed, 4300, 32.989600000000095, -106.9727499999999, 30, 60, 90, 0.011999999999999995, 0.018, 0.0016200000000000001, 120, 150, 180, 31270, 31240, 30, 60, undefined, 1493339180492, 
Booster, Armed, 4400, 32.9896100000001, -106.9727399999999, 31, 62, 93, 0.012399999999999994, 0.0186, 0.0016740000000000001, 124, 155, 186, 32269, 32238, 31, 62, undefined, 1493339181515, 
Sustainer, Armed, 4400, 32.9896100000001, -106.9727399999999, 31, 62, 93, 0.012399999999999994, 0.0186, 0.0016740000000000001, 124, 155, 186, 32269, 32238, 31, 62, undefined, 1493339181515, 
Booster, Armed, 4500, 32.9896200000001, -106.9727299999999, 32, 64, 96, 0.012799999999999994, 0.0192, 0.0017280000000000002, 128, 160, 192, 33268, 33236, 32, 64, undefined, 1493339182534, 
Sustainer, Armed, 4500, 32.9896200000001, -106.9727299999999, 32, 64, 96, 0.012799999999999994, 0.0192, 0.0017280000000000002, 128, 160, 192, 33268, 33236, 32, 64, undefined, 1493339182534, 
Booster, Armed, 4600, 32.989630000000105, -106.9727199999999, 33, 66, 99, 0.013199999999999993, 0.019799999999999998, 0.0017820000000000002, 132, 165, 198, 34267, 34234, 33, 66, undefined, 1493339183539, 
Sustainer, Armed, 4600, 32.989630000000105, -106.9727199999999, 33, 66, 99, 0.013199999999999993, 0.019799999999999998, 0.0017820000000000002, 132, 165, 198, 34267, 34234, 33, 66, undefined, 1493339183539, 
Booster, Armed, 4700, 32.98964000000011, -106.97270999999989, 34, 68, 102, 0.013599999999999992, 0.020399999999999998, 0.0018360000000000002, 136, 170, 204, 35266, 35232, 34, 68, undefined, 1493339184550, 
Sustainer, Armed, 4700, 32.98964000000011, -106.97270999999989, 34, 68, 102, 0.013599999999999992, 0.020399999999999998, 0.0018360000000000002, 136, 170, 204, 35266, 35232, 34, 68, undefined, 1493339184550, 
Booster, Armed, 4800, 32.98965000000011, -106.97269999999989, 35, 70, 105, 0.013999999999999992, 0.020999999999999998, 0.0018900000000000002, 140, 175, 210, 36265, 36230, 35, 70, undefined, 1493339185556, 
Sustainer, Armed, 4800, 32.98965000000011, -106.97269999999989, 35, 70, 105, 0.013999999999999992, 0.020999999999999998, 0.0018900000000000002, 140, 175, 210, 36265, 36230, 35, 70, undefined, 1493339185556, 
Booster, Armed, 4900, 32.989660000000114, -106.97268999999989, 36, 72, 108, 0.014399999999999991, 0.021599999999999998, 0.0019440000000000002, 144, 180, 216, 37264, 37228, 36, 72, undefined, 1493339186574, 
Sustainer, Armed, 4900, 32.989660000000114, -106.97268999999989, 36, 72, 108, 0.014399999999999991, 0.021599999999999998, 0.0019440000000000002, 144, 180, 216, 37264, 37228, 36, 72, undefined, 1493339186574, 
Booster, Armed, 5000, 32.98967000000012, -106.97267999999988, 37, 74, 111, 0.01479999999999999, 0.022199999999999998, 0.001998, 148, 185, 222, 38263, 38226, 37, 74, undefined, 1493339187596, 
Sustainer, Armed, 5000, 32.98967000000012, -106.97267999999988, 37, 74, 111, 0.01479999999999999, 0.022199999999999998, 0.001998, 148, 185, 222, 38263, 38226, 37, 74, undefined, 1493339187596, 
Booster, Armed, 5100, 32.98968000000012, -106.97266999999988, 38, 76, 114, 0.01519999999999999, 0.022799999999999997, 0.002052, 152, 190, 228, 39262, 39224, 38, 76, undefined, 1493339188604, 
Sustainer, Armed, 5100, 32.98968000000012, -106.97266999999988, 38, 76, 114, 0.01519999999999999, 0.022799999999999997, 0.002052, 152, 190, 228, 39262, 39224, 38, 76, undefined, 1493339188604, 
Booster, Armed, 5200, 32.989690000000124, -106.97265999999988, 39, 78, 117, 0.015599999999999989, 0.023399999999999997, 0.002106, 156, 195, 234, 40261, 40222, 39, 78, undefined, 1493339189616, 
Sustainer, Armed, 5200, 32.989690000000124, -106.97265999999988, 39, 78, 117, 0.015599999999999989, 0.023399999999999997, 0.002106, 156, 195, 234, 40261, 40222, 39, 78, undefined, 1493339189616, 
Booster, Armed, 5300, 32.98970000000013, -106.97264999999987, 40, 80, 120, 0.01599999999999999, 0.023999999999999997, 0.0021599999999999996, 160, 200, 240, 41260, 41220, 40, 80, undefined, 1493339190639, 
Sustainer, Armed, 5300, 32.98970000000013, -106.97264999999987, 40, 80, 120, 0.01599999999999999, 0.023999999999999997, 0.0021599999999999996, 160, 200, 240, 41260, 41220, 40, 80, undefined, 1493339190639, 
Booster, Armed, 5400, 32.98971000000013, -106.97263999999987, 41, 82, 123, 0.01639999999999999, 0.024599999999999997, 0.0022139999999999994, 164, 205, 246, 42259, 42218, 41, 82, undefined, 1493339191656, 
Sustainer, Armed, 5400, 32.98971000000013, -106.97263999999987, 41, 82, 123, 0.01639999999999999, 0.024599999999999997, 0.0022139999999999994, 164, 205, 246, 42259, 42218, 41, 82, undefined, 1493339191656, 
Booster, Armed, 5500, 32.98972000000013, -106.97262999999987, 42, 84, 126, 0.016799999999999992, 0.025199999999999997, 0.002267999999999999, 168, 210, 252, 43258, 43216, 42, 84, undefined, 1493339192667, 
Sustainer, Armed, 5500, 32.98972000000013, -106.97262999999987, 42, 84, 126, 0.016799999999999992, 0.025199999999999997, 0.002267999999999999, 168, 210, 252, 43258, 43216, 42, 84, undefined, 1493339192668, 
Booster, Armed, 5600, 32.98973000000014, -106.97261999999986, 43, 86, 129, 0.017199999999999993, 0.025799999999999997, 0.002321999999999999, 172, 215, 258, 44257, 44214, 43, 86, undefined, 1493339193683, 
Sustainer, Armed, 5600, 32.98973000000014, -106.97261999999986, 43, 86, 129, 0.017199999999999993, 0.025799999999999997, 0.002321999999999999, 172, 215, 258, 44257, 44214, 43, 86, undefined, 1493339193683, 
Booster, Armed, 5700, 32.98974000000014, -106.97260999999986, 44, 88, 132, 0.017599999999999994, 0.026399999999999996, 0.0023759999999999988, 176, 220, 264, 45256, 45212, 44, 88, undefined, 1493339194699, 
Sustainer, Armed, 5700, 32.98974000000014, -106.97260999999986, 44, 88, 132, 0.017599999999999994, 0.026399999999999996, 0.0023759999999999988, 176, 220, 264, 45256, 45212, 44, 88, undefined, 1493339194699, 
Booster, Armed, 5800, 32.98975000000014, -106.97259999999986, 45, 90, 135, 0.017999999999999995, 0.026999999999999996, 0.0024299999999999986, 180, 225, 270, 46255, 46210, 45, 90, undefined, 1493339195718, 
Sustainer, Armed, 5800, 32.98975000000014, -106.97259999999986, 45, 90, 135, 0.017999999999999995, 0.026999999999999996, 0.0024299999999999986, 180, 225, 270, 46255, 46210, 45, 90, undefined, 1493339195718, 
Booster, Armed, 5900, 32.989760000000146, -106.97258999999985, 46, 92, 138, 0.018399999999999996, 0.027599999999999996, 0.0024839999999999984, 184, 230, 276, 47254, 47208, 46, 92, undefined, 1493339196736, 
Sustainer, Armed, 5900, 32.989760000000146, -106.97258999999985, 46, 92, 138, 0.018399999999999996, 0.027599999999999996, 0.0024839999999999984, 184, 230, 276, 47254, 47208, 46, 92, undefined, 1493339196736, 
Booster, Armed, 6000, 32.98977000000015, -106.97257999999985, 47, 94, 141, 0.018799999999999997, 0.028199999999999996, 0.002537999999999998, 188, 235, 282, 48253, 48206, 47, 94, undefined, 1493339197753, 
Sustainer, Armed, 6000, 32.98977000000015, -106.97257999999985, 47, 94, 141, 0.018799999999999997, 0.028199999999999996, 0.002537999999999998, 188, 235, 282, 48253, 48206, 47, 94, undefined, 1493339197753, 
Booster, Armed, 6100, 32.98978000000015, -106.97256999999985, 48, 96, 144, 0.0192, 0.028799999999999996, 0.002591999999999998, 192, 240, 288, 49252, 49204, 48, 96, undefined, 1493339198763, 
Sustainer, Armed, 6100, 32.98978000000015, -106.97256999999985, 48, 96, 144, 0.0192, 0.028799999999999996, 0.002591999999999998, 192, 240, 288, 49252, 49204, 48, 96, undefined, 1493339198763, 
Booster, Armed, 6200, 32.989790000000156, -106.97255999999985, 49, 98, 147, 0.0196, 0.029399999999999996, 0.0026459999999999977, 196, 245, 294, 50251, 50202, 49, 98, undefined, 1493339199770, 
Sustainer, Armed, 6200, 32.989790000000156, -106.97255999999985, 49, 98, 147, 0.0196, 0.029399999999999996, 0.0026459999999999977, 196, 245, 294, 50251, 50202, 49, 98, undefined, 1493339199770, 
Booster, Armed, 6300, 32.98980000000016, -106.97254999999984, 50, 100, 150, 0.02, 0.029999999999999995, 0.0026999999999999975, 200, 250, 300, 51250, 51200, 50, 100, undefined, 1493339200776, 
Sustainer, Armed, 6300, 32.98980000000016, -106.97254999999984, 50, 100, 150, 0.02, 0.029999999999999995, 0.0026999999999999975, 200, 250, 300, 51250, 51200, 50, 100, undefined, 1493339200776, 
Booster, Armed, 6400, 32.98981000000016, -106.97253999999984, 51, 102, 153, 0.0204, 0.030599999999999995, 0.0027539999999999973, 204, 255, 306, 52249, 52198, 51, 102, undefined, 1493339201796, 
Sustainer, Armed, 6400, 32.98981000000016, -106.97253999999984, 51, 102, 153, 0.0204, 0.030599999999999995, 0.0027539999999999973, 204, 255, 306, 52249, 52198, 51, 102, undefined, 1493339201796, 
Booster, Armed, 6500, 32.989820000000165, -106.97252999999984, 52, 104, 156, 0.020800000000000003, 0.031199999999999995, 0.002807999999999997, 208, 260, 312, 53248, 53196, 52, 104, undefined, 1493339202815, 
Sustainer, Armed, 6500, 32.989820000000165, -106.97252999999984, 52, 104, 156, 0.020800000000000003, 0.031199999999999995, 0.002807999999999997, 208, 260, 312, 53248, 53196, 52, 104, undefined, 1493339202815, 
Booster, Armed, 6600, 32.98983000000017, -106.97251999999983, 53, 106, 159, 0.021200000000000004, 0.031799999999999995, 0.002861999999999997, 212, 265, 318, 54247, 54194, 53, 106, undefined, 1493339203827, 
Sustainer, Armed, 6600, 32.98983000000017, -106.97251999999983, 53, 106, 159, 0.021200000000000004, 0.031799999999999995, 0.002861999999999997, 212, 265, 318, 54247, 54194, 53, 106, undefined, 1493339203827, 
Booster, Armed, 6700, 32.98984000000017, -106.97250999999983, 54, 108, 162, 0.021600000000000005, 0.0324, 0.0029159999999999967, 216, 270, 324, 55246, 55192, 54, 108, undefined, 1493339204838, 
Sustainer, Armed, 6700, 32.98984000000017, -106.97250999999983, 54, 108, 162, 0.021600000000000005, 0.0324, 0.0029159999999999967, 216, 270, 324, 55246, 55192, 54, 108, undefined, 1493339204838, 
Booster, Armed, 6800, 32.989850000000175, -106.97249999999983, 55, 110, 165, 0.022000000000000006, 0.033, 0.0029699999999999965, 220, 275, 330, 56245, 56190, 55, 110, undefined, 1493339205842, 
Sustainer, Armed, 6800, 32.989850000000175, -106.97249999999983, 55, 110, 165, 0.022000000000000006, 0.033, 0.0029699999999999965, 220, 275, 330, 56245, 56190, 55, 110, undefined, 1493339205847, 
Booster, Armed, 6900, 32.98986000000018, -106.97248999999982, 56, 112, 168, 0.022400000000000007, 0.033600000000000005, 0.0030239999999999963, 224, 280, 336, 57244, 57188, 56, 112, undefined, 1493339206854, 
Sustainer, Armed, 6900, 32.98986000000018, -106.97248999999982, 56, 112, 168, 0.022400000000000007, 0.033600000000000005, 0.0030239999999999963, 224, 280, 336, 57244, 57188, 56, 112, undefined, 1493339206854, 
Booster, Armed, 7000, 32.98987000000018, -106.97247999999982, 57, 114, 171, 0.022800000000000008, 0.03420000000000001, 0.003077999999999996, 228, 285, 342, 58243, 58186, 57, 114, undefined, 1493339207862, 
Sustainer, Armed, 7000, 32.98987000000018, -106.97247999999982, 57, 114, 171, 0.022800000000000008, 0.03420000000000001, 0.003077999999999996, 228, 285, 342, 58243, 58186, 57, 114, undefined, 1493339207862, 
Booster, Armed, 7100, 32.989880000000184, -106.97246999999982, 58, 116, 174, 0.02320000000000001, 0.03480000000000001, 0.003131999999999996, 232, 290, 348, 59242, 59184, 58, 116, undefined, 1493339208872, 
Sustainer, Armed, 7100, 32.989880000000184, -106.97246999999982, 58, 116, 174, 0.02320000000000001, 0.03480000000000001, 0.003131999999999996, 232, 290, 348, 59242, 59184, 58, 116, undefined, 1493339208872, 
Booster, Armed, 7200, 32.98989000000019, -106.97245999999981, 59, 118, 177, 0.02360000000000001, 0.035400000000000015, 0.0031859999999999957, 236, 295, 354, 60241, 60182, 59, 118, undefined, 1493339209883, 
Sustainer, Armed, 7200, 32.98989000000019, -106.97245999999981, 59, 118, 177, 0.02360000000000001, 0.035400000000000015, 0.0031859999999999957, 236, 295, 354, 60241, 60182, 59, 118, undefined, 1493339209883, 
Booster, Armed, 7300, 32.98990000000019, -106.97244999999981, 60, 120, 180, 0.02400000000000001, 0.03600000000000002, 0.0032399999999999955, 240, 300, 360, 61240, 61180, 60, 120, undefined, 1493339210894, 
Sustainer, Armed, 7300, 32.98990000000019, -106.97244999999981, 60, 120, 180, 0.02400000000000001, 0.03600000000000002, 0.0032399999999999955, 240, 300, 360, 61240, 61180, 60, 120, undefined, 1493339210894, 
Booster, Armed, 7400, 32.989910000000194, -106.9724399999998, 61, 122, 183, 0.024400000000000012, 0.03660000000000002, 0.0032939999999999953, 244, 305, 366, 62239, 62178, 61, 122, undefined, 1493339211900, 
Sustainer, Armed, 7400, 32.989910000000194, -106.9724399999998, 61, 122, 183, 0.024400000000000012, 0.03660000000000002, 0.0032939999999999953, 244, 305, 366, 62239, 62178, 61, 122, undefined, 1493339211900, 
Booster, Armed, 7500, 32.9899200000002, -106.9724299999998, 62, 124, 186, 0.024800000000000013, 0.037200000000000025, 0.003347999999999995, 248, 310, 372, 63238, 63176, 62, 124, undefined, 1493339212910, 
Sustainer, Armed, 7500, 32.9899200000002, -106.9724299999998, 62, 124, 186, 0.024800000000000013, 0.037200000000000025, 0.003347999999999995, 248, 310, 372, 63238, 63176, 62, 124, undefined, 1493339212910, 
Booster, Armed, 7600, 32.9899300000002, -106.9724199999998, 63, 126, 189, 0.025200000000000014, 0.03780000000000003, 0.003401999999999995, 252, 315, 378, 64237, 64174, 63, 126, undefined, 1493339213925, 
Sustainer, Armed, 7600, 32.9899300000002, -106.9724199999998, 63, 126, 189, 0.025200000000000014, 0.03780000000000003, 0.003401999999999995, 252, 315, 378, 64237, 64174, 63, 126, undefined, 1493339213925, 
Booster, Armed, 7700, 32.9899400000002, -106.9724099999998, 64, 128, 192, 0.025600000000000015, 0.03840000000000003, 0.0034559999999999947, 256, 320, 384, 65236, 65172, 64, 128, undefined, 1493339214933, 
Sustainer, Armed, 7700, 32.9899400000002, -106.9724099999998, 64, 128, 192, 0.025600000000000015, 0.03840000000000003, 0.0034559999999999947, 256, 320, 384, 65236, 65172, 64, 128, undefined, 1493339214933, 
Booster, Armed, 7800, 32.989950000000206, -106.9723999999998, 65, 130, 195, 0.026000000000000016, 0.039000000000000035, 0.0035099999999999945, 260, 325, 390, 66235, 66170, 65, 130, undefined, 1493339215955, 
Sustainer, Armed, 7800, 32.989950000000206, -106.9723999999998, 65, 130, 195, 0.026000000000000016, 0.039000000000000035, 0.0035099999999999945, 260, 325, 390, 66235, 66170, 65, 130, undefined, 1493339215955, 
Booster, Armed, 7900, 32.98996000000021, -106.97238999999979, 66, 132, 198, 0.026400000000000017, 0.03960000000000004, 0.0035639999999999943, 264, 330, 396, 67234, 67168, 66, 132, undefined, 1493339216976, 
Sustainer, Armed, 7900, 32.98996000000021, -106.97238999999979, 66, 132, 198, 0.026400000000000017, 0.03960000000000004, 0.0035639999999999943, 264, 330, 396, 67234, 67168, 66, 132, undefined, 1493339216976, 
Booster, Armed, 8000, 32.98997000000021, -106.97237999999979, 67, 134, 201, 0.026800000000000018, 0.04020000000000004, 0.003617999999999994, 268, 335, 402, 68233, 68166, 67, 134, undefined, 1493339217991, 
Sustainer, Armed, 8000, 32.98997000000021, -106.97237999999979, 67, 134, 201, 0.026800000000000018, 0.04020000000000004, 0.003617999999999994, 268, 335, 402, 68233, 68166, 67, 134, undefined, 1493339217991, 
Booster, Armed, 8100, 32.989980000000216, -106.97236999999978, 68, 136, 204, 0.02720000000000002, 0.040800000000000045, 0.003671999999999994, 272, 340, 408, 69232, 69164, 68, 136, undefined, 1493339219013, 
Sustainer, Armed, 8100, 32.989980000000216, -106.97236999999978, 68, 136, 204, 0.02720000000000002, 0.040800000000000045, 0.003671999999999994, 272, 340, 408, 69232, 69164, 68, 136, undefined, 1493339219013, 
Booster, Armed, 8200, 32.98999000000022, -106.97235999999978, 69, 138, 207, 0.02760000000000002, 0.04140000000000005, 0.0037259999999999936, 276, 345, 414, 70231, 70162, 69, 138, undefined, 1493339220028, 
Sustainer, Armed, 8200, 32.98999000000022, -106.97235999999978, 69, 138, 207, 0.02760000000000002, 0.04140000000000005, 0.0037259999999999936, 276, 345, 414, 70231, 70162, 69, 138, undefined, 1493339220028, 
Booster, Armed, 8300, 32.99000000000022, -106.97234999999978, 70, 140, 210, 0.02800000000000002, 0.04200000000000005, 0.0037799999999999934, 280, 350, 420, 71230, 71160, 70, 140, undefined, 1493339221042, 
Sustainer, Armed, 8300, 32.99000000000022, -106.97234999999978, 70, 140, 210, 0.02800000000000002, 0.04200000000000005, 0.0037799999999999934, 280, 350, 420, 71230, 71160, 70, 140, undefined, 1493339221043, 
Booster, Armed, 8400, 32.990010000000225, -106.97233999999978, 71, 142, 213, 0.028400000000000022, 0.042600000000000054, 0.0038339999999999932, 284, 355, 426, 72229, 72158, 71, 142, undefined, 1493339222058, 
Sustainer, Armed, 8400, 32.990010000000225, -106.97233999999978, 71, 142, 213, 0.028400000000000022, 0.042600000000000054, 0.0038339999999999932, 284, 355, 426, 72229, 72158, 71, 142, undefined, 1493339222058, 
Booster, Armed, 8500, 32.99002000000023, -106.97232999999977, 72, 144, 216, 0.028800000000000023, 0.04320000000000006, 0.003887999999999993, 288, 360, 432, 73228, 73156, 72, 144, undefined, 1493339223068, 
Sustainer, Armed, 8500, 32.99002000000023, -106.97232999999977, 72, 144, 216, 0.028800000000000023, 0.04320000000000006, 0.003887999999999993, 288, 360, 432, 73228, 73156, 72, 144, undefined, 1493339223068, 
Booster, Armed, 8600, 32.99003000000023, -106.97231999999977, 73, 146, 219, 0.029200000000000025, 0.04380000000000006, 0.003941999999999993, 292, 365, 438, 74227, 74154, 73, 146, undefined, 1493339224077, 
Sustainer, Armed, 8600, 32.99003000000023, -106.97231999999977, 73, 146, 219, 0.029200000000000025, 0.04380000000000006, 0.003941999999999993, 292, 365, 438, 74227, 74154, 73, 146, undefined, 1493339224077, 
Booster, Armed, 8700, 32.990040000000235, -106.97230999999977, 74, 148, 222, 0.029600000000000026, 0.044400000000000064, 0.0039959999999999935, 296, 370, 444, 75226, 75152, 74, 148, undefined, 1493339225085, 
Sustainer, Armed, 8700, 32.990040000000235, -106.97230999999977, 74, 148, 222, 0.029600000000000026, 0.044400000000000064, 0.0039959999999999935, 296, 370, 444, 75226, 75152, 74, 148, undefined, 1493339225085, 
Booster, Armed, 8800, 32.99005000000024, -106.97229999999976, 75, 150, 225, 0.030000000000000027, 0.04500000000000007, 0.004049999999999994, 300, 375, 450, 76225, 76150, 75, 150, undefined, 1493339226091, 
Sustainer, Armed, 8800, 32.99005000000024, -106.97229999999976, 75, 150, 225, 0.030000000000000027, 0.04500000000000007, 0.004049999999999994, 300, 375, 450, 76225, 76150, 75, 150, undefined, 1493339226092, 
Booster, Armed, 8900, 32.99006000000024, -106.97228999999976, 76, 152, 228, 0.030400000000000028, 0.04560000000000007, 0.004103999999999994, 304, 380, 456, 77224, 77148, 76, 152, undefined, 1493339227098, 
Sustainer, Armed, 8900, 32.99006000000024, -106.97228999999976, 76, 152, 228, 0.030400000000000028, 0.04560000000000007, 0.004103999999999994, 304, 380, 456, 77224, 77148, 76, 152, undefined, 1493339227098, 
Booster, Armed, 9000, 32.990070000000244, -106.97227999999976, 77, 154, 231, 0.03080000000000003, 0.046200000000000074, 0.004157999999999994, 308, 385, 462, 78223, 78146, 77, 154, undefined, 1493339228103, 
Sustainer, Armed, 9000, 32.990070000000244, -106.97227999999976, 77, 154, 231, 0.03080000000000003, 0.046200000000000074, 0.004157999999999994, 308, 385, 462, 78223, 78146, 77, 154, undefined, 1493339228103, 
Booster, Armed, 9100, 32.99008000000025, -106.97226999999975, 78, 156, 234, 0.03120000000000003, 0.04680000000000008, 0.004211999999999994, 312, 390, 468, 79222, 79144, 78, 156, undefined, 1493339229107, 
Sustainer, Armed, 9100, 32.99008000000025, -106.97226999999975, 78, 156, 234, 0.03120000000000003, 0.04680000000000008, 0.004211999999999994, 312, 390, 468, 79222, 79144, 78, 156, undefined, 1493339229107, 
Booster, Armed, 9200, 32.99009000000025, -106.97225999999975, 79, 158, 237, 0.03160000000000003, 0.04740000000000008, 0.004265999999999995, 316, 395, 474, 80221, 80142, 79, 158, undefined, 1493339230111, 
Sustainer, Armed, 9200, 32.99009000000025, -106.97225999999975, 79, 158, 237, 0.03160000000000003, 0.04740000000000008, 0.004265999999999995, 316, 395, 474, 80221, 80142, 79, 158, undefined, 1493339230111, 
Booster, Armed, 9300, 32.990100000000254, -106.97224999999975, 80, 160, 240, 0.03200000000000003, 0.048000000000000084, 0.004319999999999995, 320, 400, 480, 81220, 81140, 80, 160, undefined, 1493339231136, 
Sustainer, Armed, 9300, 32.990100000000254, -106.97224999999975, 80, 160, 240, 0.03200000000000003, 0.048000000000000084, 0.004319999999999995, 320, 400, 480, 81220, 81140, 80, 160, undefined, 1493339231136, 
Booster, Armed, 9400, 32.99011000000026, -106.97223999999974, 81, 162, 243, 0.032400000000000026, 0.04860000000000009, 0.004373999999999995, 324, 405, 486, 82219, 82138, 81, 162, undefined, 1493339232152, 
Sustainer, Armed, 9400, 32.99011000000026, -106.97223999999974, 81, 162, 243, 0.032400000000000026, 0.04860000000000009, 0.004373999999999995, 324, 405, 486, 82219, 82138, 81, 162, undefined, 1493339232152, 
Booster, Armed, 9500, 32.99012000000026, -106.97222999999974, 82, 164, 246, 0.032800000000000024, 0.04920000000000009, 0.004427999999999995, 328, 410, 492, 83218, 83136, 82, 164, undefined, 1493339233172, 
Sustainer, Armed, 9500, 32.99012000000026, -106.97222999999974, 82, 164, 246, 0.032800000000000024, 0.04920000000000009, 0.004427999999999995, 328, 410, 492, 83218, 83136, 82, 164, undefined, 1493339233172, 
Booster, Armed, 9600, 32.99013000000026, -106.97221999999974, 83, 166, 249, 0.03320000000000002, 0.049800000000000094, 0.0044819999999999955, 332, 415, 498, 84217, 84134, 83, 166, undefined, 1493339234180, 
Sustainer, Armed, 9600, 32.99013000000026, -106.97221999999974, 83, 166, 249, 0.03320000000000002, 0.049800000000000094, 0.0044819999999999955, 332, 415, 498, 84217, 84134, 83, 166, undefined, 1493339234180, 
Booster, Armed, 9700, 32.99014000000027, -106.97220999999973, 84, 168, 252, 0.03360000000000002, 0.0504000000000001, 0.004535999999999996, 336, 420, 504, 85216, 85132, 84, 168, undefined, 1493339235191, 
Sustainer, Armed, 9700, 32.99014000000027, -106.97220999999973, 84, 168, 252, 0.03360000000000002, 0.0504000000000001, 0.004535999999999996, 336, 420, 504, 85216, 85132, 84, 168, undefined, 1493339235191, 
Booster, Armed, 9800, 32.99015000000027, -106.97219999999973, 85, 170, 255, 0.034000000000000016, 0.0510000000000001, 0.004589999999999996, 340, 425, 510, 86215, 86130, 85, 170, undefined, 1493339236205, 
Sustainer, Armed, 9800, 32.99015000000027, -106.97219999999973, 85, 170, 255, 0.034000000000000016, 0.0510000000000001, 0.004589999999999996, 340, 425, 510, 86215, 86130, 85, 170, undefined, 1493339236205, 
Booster, Armed, 9900, 32.99016000000027, -106.97218999999973, 86, 172, 258, 0.034400000000000014, 0.051600000000000104, 0.004643999999999996, 344, 430, 516, 87214, 87128, 86, 172, undefined, 1493339237212, 
Sustainer, Armed, 9900, 32.99016000000027, -106.97218999999973, 86, 172, 258, 0.034400000000000014, 0.051600000000000104, 0.004643999999999996, 344, 430, 516, 87214, 87128, 86, 172, undefined, 1493339237212, 
Booster, Armed, 10000, 32.990170000000276, -106.97217999999972, 87, 174, 261, 0.03480000000000001, 0.05220000000000011, 0.0046979999999999964, 348, 435, 522, 88213, 88126, 87, 174, undefined, 1493339238224, 
Sustainer, Armed, 10000, 32.990170000000276, -106.97217999999972, 87, 174, 261, 0.03480000000000001, 0.05220000000000011, 0.0046979999999999964, 348, 435, 522, 88213, 88126, 87, 174, undefined, 1493339238224, 
Booster, Armed, 10100, 32.99018000000028, -106.97216999999972, 88, 176, 264, 0.03520000000000001, 0.05280000000000011, 0.004751999999999997, 352, 440, 528, 89212, 89124, 88, 176, undefined, 1493339239241, 
Sustainer, Armed, 10100, 32.99018000000028, -106.97216999999972, 88, 176, 264, 0.03520000000000001, 0.05280000000000011, 0.004751999999999997, 352, 440, 528, 89212, 89124, 88, 176, undefined, 1493339239241, 
Booster, Armed, 10200, 32.99019000000028, -106.97215999999972, 89, 178, 267, 0.03560000000000001, 0.053400000000000114, 0.004805999999999997, 356, 445, 534, 90211, 90122, 89, 178, undefined, 1493339240257, 
Sustainer, Armed, 10200, 32.99019000000028, -106.97215999999972, 89, 178, 267, 0.03560000000000001, 0.053400000000000114, 0.004805999999999997, 356, 445, 534, 90211, 90122, 89, 178, undefined, 1493339240257, 
Booster, Armed, 10300, 32.990200000000286, -106.97214999999971, 90, 180, 270, 0.036000000000000004, 0.05400000000000012, 0.004859999999999997, 360, 450, 540, 91210, 91120, 90, 180, undefined, 1493339241277, 
Sustainer, Armed, 10300, 32.990200000000286, -106.97214999999971, 90, 180, 270, 0.036000000000000004, 0.05400000000000012, 0.004859999999999997, 360, 450, 540, 91210, 91120, 90, 180, undefined, 1493339241277, 
Booster, Armed, 10400, 32.99021000000029, -106.97213999999971, 91, 182, 273, 0.0364, 0.05460000000000012, 0.004913999999999997, 364, 455, 546, 92209, 92118, 91, 182, undefined, 1493339242297, 
Sustainer, Armed, 10400, 32.99021000000029, -106.97213999999971, 91, 182, 273, 0.0364, 0.05460000000000012, 0.004913999999999997, 364, 455, 546, 92209, 92118, 91, 182, undefined, 1493339242297, 
Booster, Armed, 10500, 32.99022000000029, -106.97212999999971, 92, 184, 276, 0.0368, 0.055200000000000124, 0.004967999999999998, 368, 460, 552, 93208, 93116, 92, 184, undefined, 1493339243305, 
Sustainer, Armed, 10500, 32.99022000000029, -106.97212999999971, 92, 184, 276, 0.0368, 0.055200000000000124, 0.004967999999999998, 368, 460, 552, 93208, 93116, 92, 184, undefined, 1493339243305, 
Booster, Armed, 10600, 32.990230000000295, -106.9721199999997, 93, 186, 279, 0.0372, 0.05580000000000013, 0.005021999999999998, 372, 465, 558, 94207, 94114, 93, 186, undefined, 1493339244314, 
Sustainer, Armed, 10600, 32.990230000000295, -106.9721199999997, 93, 186, 279, 0.0372, 0.05580000000000013, 0.005021999999999998, 372, 465, 558, 94207, 94114, 93, 186, undefined, 1493339244314, 
Booster, Armed, 10700, 32.9902400000003, -106.9721099999997, 94, 188, 282, 0.037599999999999995, 0.05640000000000013, 0.005075999999999998, 376, 470, 564, 95206, 95112, 94, 188, undefined, 1493339245332, 
Sustainer, Armed, 10700, 32.9902400000003, -106.9721099999997, 94, 188, 282, 0.037599999999999995, 0.05640000000000013, 0.005075999999999998, 376, 470, 564, 95206, 95112, 94, 188, undefined, 1493339245332, 
Booster, Armed, 10800, 32.9902500000003, -106.9720999999997, 95, 190, 285, 0.03799999999999999, 0.057000000000000134, 0.005129999999999998, 380, 475, 570, 96205, 96110, 95, 190, undefined, 1493339246339, 
Sustainer, Armed, 10800, 32.9902500000003, -106.9720999999997, 95, 190, 285, 0.03799999999999999, 0.057000000000000134, 0.005129999999999998, 380, 475, 570, 96205, 96110, 95, 190, undefined, 1493339246339, 
Booster, Armed, 10900, 32.990260000000305, -106.9720899999997, 96, 192, 288, 0.03839999999999999, 0.05760000000000014, 0.0051839999999999985, 384, 480, 576, 97204, 97108, 96, 192, undefined, 1493339247349, 
Sustainer, Armed, 10900, 32.990260000000305, -106.9720899999997, 96, 192, 288, 0.03839999999999999, 0.05760000000000014, 0.0051839999999999985, 384, 480, 576, 97204, 97108, 96, 192, undefined, 1493339247349, 
Booster, Armed, 11000, 32.99027000000031, -106.97207999999969, 97, 194, 291, 0.03879999999999999, 0.05820000000000014, 0.005237999999999999, 388, 485, 582, 98203, 98106, 97, 194, undefined, 1493339248355, 
Sustainer, Armed, 11000, 32.99027000000031, -106.97207999999969, 97, 194, 291, 0.03879999999999999, 0.05820000000000014, 0.005237999999999999, 388, 485, 582, 98203, 98106, 97, 194, undefined, 1493339248355, 
Booster, Armed, 11100, 32.99028000000031, -106.97206999999969, 98, 196, 294, 0.039199999999999985, 0.058800000000000144, 0.005291999999999999, 392, 490, 588, 99202, 99104, 98, 196, undefined, 1493339249359, 
Sustainer, Armed, 11100, 32.99028000000031, -106.97206999999969, 98, 196, 294, 0.039199999999999985, 0.058800000000000144, 0.005291999999999999, 392, 490, 588, 99202, 99104, 98, 196, undefined, 1493339249359, 
Booster, Armed, 11200, 32.990290000000314, -106.97205999999969, 99, 198, 297, 0.03959999999999998, 0.05940000000000015, 0.005345999999999999, 396, 495, 594, 100201, 100102, 99, 198, undefined, 1493339250368, 
Sustainer, Armed, 11200, 32.990290000000314, -106.97205999999969, 99, 198, 297, 0.03959999999999998, 0.05940000000000015, 0.005345999999999999, 396, 495, 594, 100201, 100102, 99, 198, undefined, 1493339250368, 
Booster, Armed, 11300, 32.99030000000032, -106.97204999999968, 100, 200, 300, 0.03999999999999998, 0.06000000000000015, 0.005399999999999999, 400, 500, 600, 101200, 101100, 100, 200, undefined, 1493339251380, 
Sustainer, Armed, 11300, 32.99030000000032, -106.97204999999968, 100, 200, 300, 0.03999999999999998, 0.06000000000000015, 0.005399999999999999, 400, 500, 600, 101200, 101100, 100, 200, undefined, 1493339251380, 
Booster, Armed, 11400, 32.99031000000032, -106.97203999999968, 101, 202, 303, 0.04039999999999998, 0.060600000000000154, 0.005454, 404, 505, 606, 102199, 102098, 101, 202, undefined, 1493339252398, 
Sustainer, Armed, 11400, 32.99031000000032, -106.97203999999968, 101, 202, 303, 0.04039999999999998, 0.060600000000000154, 0.005454, 404, 505, 606, 102199, 102098, 101, 202, undefined, 1493339252398, 
Booster, Armed, 11500, 32.990320000000324, -106.97202999999968, 102, 204, 306, 0.040799999999999975, 0.06120000000000016, 0.005508, 408, 510, 612, 103198, 103096, 102, 204, undefined, 1493339253403, 
Sustainer, Armed, 11500, 32.990320000000324, -106.97202999999968, 102, 204, 306, 0.040799999999999975, 0.06120000000000016, 0.005508, 408, 510, 612, 103198, 103096, 102, 204, undefined, 1493339253403, 
Booster, Armed, 11600, 32.99033000000033, -106.97201999999967, 103, 206, 309, 0.04119999999999997, 0.06180000000000016, 0.005562, 412, 515, 618, 104197, 104094, 103, 206, undefined, 1493339254410, 
Sustainer, Armed, 11600, 32.99033000000033, -106.97201999999967, 103, 206, 309, 0.04119999999999997, 0.06180000000000016, 0.005562, 412, 515, 618, 104197, 104094, 103, 206, undefined, 1493339254410, 
Booster, Armed, 11700, 32.99034000000033, -106.97200999999967, 104, 208, 312, 0.04159999999999997, 0.062400000000000164, 0.005616, 416, 520, 624, 105196, 105092, 104, 208, undefined, 1493339255415, 
Sustainer, Armed, 11700, 32.99034000000033, -106.97200999999967, 104, 208, 312, 0.04159999999999997, 0.062400000000000164, 0.005616, 416, 520, 624, 105196, 105092, 104, 208, undefined, 1493339255415, 
Booster, Armed, 11800, 32.99035000000033, -106.97199999999967, 105, 210, 315, 0.04199999999999997, 0.06300000000000017, 0.0056700000000000006, 420, 525, 630, 106195, 106090, 105, 210, undefined, 1493339256419, 
Sustainer, Armed, 11800, 32.99035000000033, -106.97199999999967, 105, 210, 315, 0.04199999999999997, 0.06300000000000017, 0.0056700000000000006, 420, 525, 630, 106195, 106090, 105, 210, undefined, 1493339256419, 
Booster, Armed, 11900, 32.99036000000034, -106.97198999999966, 106, 212, 318, 0.042399999999999965, 0.06360000000000017, 0.005724000000000001, 424, 530, 636, 107194, 107088, 106, 212, undefined, 1493339257426, 
Sustainer, Armed, 11900, 32.99036000000034, -106.97198999999966, 106, 212, 318, 0.042399999999999965, 0.06360000000000017, 0.005724000000000001, 424, 530, 636, 107194, 107088, 106, 212, undefined, 1493339257426, 
Booster, Armed, 12000, 32.99037000000034, -106.97197999999966, 107, 214, 321, 0.04279999999999996, 0.06420000000000017, 0.005778000000000001, 428, 535, 642, 108193, 108086, 107, 214, undefined, 1493339258434, 
Sustainer, Armed, 12000, 32.99037000000034, -106.97197999999966, 107, 214, 321, 0.04279999999999996, 0.06420000000000017, 0.005778000000000001, 428, 535, 642, 108193, 108086, 107, 214, undefined, 1493339258434, 
Booster, Armed, 12100, 32.99038000000034, -106.97196999999966, 108, 216, 324, 0.04319999999999996, 0.06480000000000018, 0.005832000000000001, 432, 540, 648, 109192, 109084, 108, 216, undefined, 1493339259439, 
Sustainer, Armed, 12100, 32.99038000000034, -106.97196999999966, 108, 216, 324, 0.04319999999999996, 0.06480000000000018, 0.005832000000000001, 432, 540, 648, 109192, 109084, 108, 216, undefined, 1493339259439, 
Booster, Armed, 12200, 32.990390000000346, -106.97195999999965, 109, 218, 327, 0.04359999999999996, 0.06540000000000018, 0.0058860000000000015, 436, 545, 654, 110191, 110082, 109, 218, undefined, 1493339260447, 
Sustainer, Armed, 12200, 32.990390000000346, -106.97195999999965, 109, 218, 327, 0.04359999999999996, 0.06540000000000018, 0.0058860000000000015, 436, 545, 654, 110191, 110082, 109, 218, undefined, 1493339260447, 
Booster, Armed, 12300, 32.99040000000035, -106.97194999999965, 110, 220, 330, 0.043999999999999956, 0.06600000000000018, 0.005940000000000002, 440, 550, 660, 111190, 111080, 110, 220, undefined, 1493339261466, 
Sustainer, Armed, 12300, 32.99040000000035, -106.97194999999965, 110, 220, 330, 0.043999999999999956, 0.06600000000000018, 0.005940000000000002, 440, 550, 660, 111190, 111080, 110, 220, undefined, 1493339261466, 
Booster, Armed, 12400, 32.99041000000035, -106.97193999999965, 111, 222, 333, 0.04439999999999995, 0.06660000000000019, 0.005994000000000002, 444, 555, 666, 112189, 112078, 111, 222, undefined, 1493339262475, 
Sustainer, Armed, 12400, 32.99041000000035, -106.97193999999965, 111, 222, 333, 0.04439999999999995, 0.06660000000000019, 0.005994000000000002, 444, 555, 666, 112189, 112078, 111, 222, undefined, 1493339262475, 
Booster, Armed, 12500, 32.990420000000356, -106.97192999999965, 112, 224, 336, 0.04479999999999995, 0.06720000000000019, 0.006048000000000002, 448, 560, 672, 113188, 113076, 112, 224, undefined, 1493339263490, 
Sustainer, Armed, 12500, 32.990420000000356, -106.97192999999965, 112, 224, 336, 0.04479999999999995, 0.06720000000000019, 0.006048000000000002, 448, 560, 672, 113188, 113076, 112, 224, undefined, 1493339263490, 
Booster, Armed, 12600, 32.99043000000036, -106.97191999999964, 113, 226, 339, 0.04519999999999995, 0.0678000000000002, 0.006102000000000002, 452, 565, 678, 114187, 114074, 113, 226, undefined, 1493339264506, 
Sustainer, Armed, 12600, 32.99043000000036, -106.97191999999964, 113, 226, 339, 0.04519999999999995, 0.0678000000000002, 0.006102000000000002, 452, 565, 678, 114187, 114074, 113, 226, undefined, 1493339264507, 
Booster, Armed, 12700, 32.99044000000036, -106.97190999999964, 114, 228, 342, 0.045599999999999946, 0.0684000000000002, 0.006156000000000003, 456, 570, 684, 115186, 115072, 114, 228, undefined, 1493339265514, 
Sustainer, Armed, 12700, 32.99044000000036, -106.97190999999964, 114, 228, 342, 0.045599999999999946, 0.0684000000000002, 0.006156000000000003, 456, 570, 684, 115186, 115072, 114, 228, undefined, 1493339265514, 
Booster, Armed, 12800, 32.990450000000365, -106.97189999999964, 115, 230, 345, 0.045999999999999944, 0.0690000000000002, 0.006210000000000003, 460, 575, 690, 116185, 116070, 115, 230, undefined, 1493339266527, 
Sustainer, Armed, 12800, 32.990450000000365, -106.97189999999964, 115, 230, 345, 0.045999999999999944, 0.0690000000000002, 0.006210000000000003, 460, 575, 690, 116185, 116070, 115, 230, undefined, 1493339266527, 
Booster, Armed, 12900, 32.99046000000037, -106.97188999999963, 116, 232, 348, 0.04639999999999994, 0.0696000000000002, 0.006264000000000003, 464, 580, 696, 117184, 117068, 116, 232, undefined, 1493339267534, 
Sustainer, Armed, 12900, 32.99046000000037, -106.97188999999963, 116, 232, 348, 0.04639999999999994, 0.0696000000000002, 0.006264000000000003, 464, 580, 696, 117184, 117068, 116, 232, undefined, 1493339267534, 
Booster, Armed, 13000, 32.99047000000037, -106.97187999999963, 117, 234, 351, 0.04679999999999994, 0.0702000000000002, 0.006318000000000003, 468, 585, 702, 118183, 118066, 117, 234, undefined, 1493339268545, 
Sustainer, Armed, 13000, 32.99047000000037, -106.97187999999963, 117, 234, 351, 0.04679999999999994, 0.0702000000000002, 0.006318000000000003, 468, 585, 702, 118183, 118066, 117, 234, undefined, 1493339268545, 
Booster, Armed, 13100, 32.990480000000375, -106.97186999999963, 118, 236, 354, 0.047199999999999936, 0.07080000000000021, 0.0063720000000000035, 472, 590, 708, 119182, 119064, 118, 236, undefined, 1493339269563, 
Sustainer, Armed, 13100, 32.990480000000375, -106.97186999999963, 118, 236, 354, 0.047199999999999936, 0.07080000000000021, 0.0063720000000000035, 472, 590, 708, 119182, 119064, 118, 236, undefined, 1493339269563, 
Booster, Armed, 13200, 32.99049000000038, -106.97185999999962, 119, 238, 357, 0.047599999999999934, 0.07140000000000021, 0.006426000000000004, 476, 595, 714, 120181, 120062, 119, 238, undefined, 1493339270572, 
Sustainer, Armed, 13200, 32.99049000000038, -106.97185999999962, 119, 238, 357, 0.047599999999999934, 0.07140000000000021, 0.006426000000000004, 476, 595, 714, 120181, 120062, 119, 238, undefined, 1493339270572, 
Booster, Armed, 13300, 32.99050000000038, -106.97184999999962, 120, 240, 360, 0.04799999999999993, 0.07200000000000022, 0.006480000000000004, 480, 600, 720, 121180, 121060, 120, 240, undefined, 1493339271576, 
Sustainer, Armed, 13300, 32.99050000000038, -106.97184999999962, 120, 240, 360, 0.04799999999999993, 0.07200000000000022, 0.006480000000000004, 480, 600, 720, 121180, 121060, 120, 240, undefined, 1493339271576, 
Booster, Armed, 13400, 32.990510000000384, -106.97183999999962, 121, 242, 363, 0.04839999999999993, 0.07260000000000022, 0.006534000000000004, 484, 605, 726, 122179, 122058, 121, 242, undefined, 1493339272594, 
Sustainer, Armed, 13400, 32.990510000000384, -106.97183999999962, 121, 242, 363, 0.04839999999999993, 0.07260000000000022, 0.006534000000000004, 484, 605, 726, 122179, 122058, 121, 242, undefined, 1493339272594, 
Booster, Armed, 13500, 32.99052000000039, -106.97182999999961, 122, 244, 366, 0.04879999999999993, 0.07320000000000022, 0.0065880000000000044, 488, 610, 732, 123178, 123056, 122, 244, undefined, 1493339273602, 
Sustainer, Armed, 13500, 32.99052000000039, -106.97182999999961, 122, 244, 366, 0.04879999999999993, 0.07320000000000022, 0.0065880000000000044, 488, 610, 732, 123178, 123056, 122, 244, undefined, 1493339273602, 
Booster, Armed, 13600, 32.99053000000039, -106.97181999999961, 123, 246, 369, 0.049199999999999924, 0.07380000000000023, 0.006642000000000005, 492, 615, 738, 124177, 124054, 123, 246, undefined, 1493339274610, 
Sustainer, Armed, 13600, 32.99053000000039, -106.97181999999961, 123, 246, 369, 0.049199999999999924, 0.07380000000000023, 0.006642000000000005, 492, 615, 738, 124177, 124054, 123, 246, undefined, 1493339274610, 
Booster, Armed, 13700, 32.990540000000394, -106.9718099999996, 124, 248, 372, 0.04959999999999992, 0.07440000000000023, 0.006696000000000005, 496, 620, 744, 125176, 125052, 124, 248, undefined, 1493339275615, 
Sustainer, Armed, 13700, 32.990540000000394, -106.9718099999996, 124, 248, 372, 0.04959999999999992, 0.07440000000000023, 0.006696000000000005, 496, 620, 744, 125176, 125052, 124, 248, undefined, 1493339275615, 
Booster, Armed, 13800, 32.9905500000004, -106.9717999999996, 125, 250, 375, 0.04999999999999992, 0.07500000000000023, 0.006750000000000005, 500, 625, 750, 126175, 126050, 125, 250, undefined, 1493339276620, 
Sustainer, Armed, 13800, 32.9905500000004, -106.9717999999996, 125, 250, 375, 0.04999999999999992, 0.07500000000000023, 0.006750000000000005, 500, 625, 750, 126175, 126050, 125, 250, undefined, 1493339276620, 
Booster, Armed, 13900, 32.9905600000004, -106.9717899999996, 126, 252, 378, 0.05039999999999992, 0.07560000000000024, 0.006804000000000005, 504, 630, 756, 127174, 127048, 126, 252, undefined, 1493339277630, 
Sustainer, Armed, 13900, 32.9905600000004, -106.9717899999996, 126, 252, 378, 0.05039999999999992, 0.07560000000000024, 0.006804000000000005, 504, 630, 756, 127174, 127048, 126, 252, undefined, 1493339277630, 
Booster, Armed, 14000, 32.9905700000004, -106.9717799999996, 127, 254, 381, 0.050799999999999915, 0.07620000000000024, 0.006858000000000006, 508, 635, 762, 128173, 128046, 127, 254, undefined, 1493339278642, 
Sustainer, Armed, 14000, 32.9905700000004, -106.9717799999996, 127, 254, 381, 0.050799999999999915, 0.07620000000000024, 0.006858000000000006, 508, 635, 762, 128173, 128046, 127, 254, undefined, 1493339278642, 
Booster, Armed, 14100, 32.990580000000406, -106.9717699999996, 128, 256, 384, 0.05119999999999991, 0.07680000000000024, 0.006912000000000006, 512, 640, 768, 129172, 129044, 128, 256, undefined, 1493339279648, 
Sustainer, Armed, 14100, 32.990580000000406, -106.9717699999996, 128, 256, 384, 0.05119999999999991, 0.07680000000000024, 0.006912000000000006, 512, 640, 768, 129172, 129044, 128, 256, undefined, 1493339279648, 
Booster, Armed, 14200, 32.99059000000041, -106.97175999999959, 129, 258, 387, 0.05159999999999991, 0.07740000000000025, 0.006966000000000006, 516, 645, 774, 130171, 130042, 129, 258, undefined, 1493339280659, 
Sustainer, Armed, 14200, 32.99059000000041, -106.97175999999959, 129, 258, 387, 0.05159999999999991, 0.07740000000000025, 0.006966000000000006, 516, 645, 774, 130171, 130042, 129, 258, undefined, 1493339280659, 
Booster, Armed, 14300, 32.99060000000041, -106.97174999999959, 130, 260, 390, 0.05199999999999991, 0.07800000000000025, 0.007020000000000006, 520, 650, 780, 131170, 131040, 130, 260, undefined, 1493339281664, 
Sustainer, Armed, 14300, 32.99060000000041, -106.97174999999959, 130, 260, 390, 0.05199999999999991, 0.07800000000000025, 0.007020000000000006, 520, 650, 780, 131170, 131040, 130, 260, undefined, 1493339281664, 
Booster, Armed, 14400, 32.990610000000416, -106.97173999999958, 131, 262, 393, 0.052399999999999905, 0.07860000000000025, 0.0070740000000000065, 524, 655, 786, 132169, 132038, 131, 262, undefined, 1493339282669, 
Sustainer, Armed, 14400, 32.990610000000416, -106.97173999999958, 131, 262, 393, 0.052399999999999905, 0.07860000000000025, 0.0070740000000000065, 524, 655, 786, 132169, 132038, 131, 262, undefined, 1493339282669, 
Booster, Armed, 14500, 32.99062000000042, -106.97172999999958, 132, 264, 396, 0.0527999999999999, 0.07920000000000026, 0.007128000000000007, 528, 660, 792, 133168, 133036, 132, 264, undefined, 1493339283674, 
Sustainer, Armed, 14500, 32.99062000000042, -106.97172999999958, 132, 264, 396, 0.0527999999999999, 0.07920000000000026, 0.007128000000000007, 528, 660, 792, 133168, 133036, 132, 264, undefined, 1493339283674, 
Booster, Armed, 14600, 32.99063000000042, -106.97171999999958, 133, 266, 399, 0.0531999999999999, 0.07980000000000026, 0.007182000000000007, 532, 665, 798, 134167, 134034, 133, 266, undefined, 1493339284682, 
Sustainer, Armed, 14600, 32.99063000000042, -106.97171999999958, 133, 266, 399, 0.0531999999999999, 0.07980000000000026, 0.007182000000000007, 532, 665, 798, 134167, 134034, 133, 266, undefined, 1493339284682, 
Booster, Armed, 14700, 32.990640000000425, -106.97170999999958, 134, 268, 402, 0.0535999999999999, 0.08040000000000026, 0.007236000000000007, 536, 670, 804, 135166, 135032, 134, 268, undefined, 1493339285688, 
Sustainer, Armed, 14700, 32.990640000000425, -106.97170999999958, 134, 268, 402, 0.0535999999999999, 0.08040000000000026, 0.007236000000000007, 536, 670, 804, 135166, 135032, 134, 268, undefined, 1493339285688, 
Booster, Armed, 14800, 32.99065000000043, -106.97169999999957, 135, 270, 405, 0.053999999999999895, 0.08100000000000027, 0.007290000000000007, 540, 675, 810, 136165, 136030, 135, 270, undefined, 1493339286696, 
Sustainer, Armed, 14800, 32.99065000000043, -106.97169999999957, 135, 270, 405, 0.053999999999999895, 0.08100000000000027, 0.007290000000000007, 540, 675, 810, 136165, 136030, 135, 270, undefined, 1493339286696, 
Booster, Armed, 14900, 32.99066000000043, -106.97168999999957, 136, 272, 408, 0.05439999999999989, 0.08160000000000027, 0.007344000000000008, 544, 680, 816, 137164, 137028, 136, 272, undefined, 1493339287700, 
Sustainer, Armed, 14900, 32.99066000000043, -106.97168999999957, 136, 272, 408, 0.05439999999999989, 0.08160000000000027, 0.007344000000000008, 544, 680, 816, 137164, 137028, 136, 272, undefined, 1493339287700, 
Booster, Armed, 15000, 32.990670000000435, -106.97167999999957, 137, 274, 411, 0.05479999999999989, 0.08220000000000027, 0.007398000000000008, 548, 685, 822, 138163, 138026, 137, 274, undefined, 1493339288710, 
Sustainer, Armed, 15000, 32.990670000000435, -106.97167999999957, 137, 274, 411, 0.05479999999999989, 0.08220000000000027, 0.007398000000000008, 548, 685, 822, 138163, 138026, 137, 274, undefined, 1493339288710, 
Booster, Armed, 15100, 32.99068000000044, -106.97166999999956, 138, 276, 414, 0.05519999999999989, 0.08280000000000028, 0.007452000000000008, 552, 690, 828, 139162, 139024, 138, 276, undefined, 1493339289728, 
Sustainer, Armed, 15100, 32.99068000000044, -106.97166999999956, 138, 276, 414, 0.05519999999999989, 0.08280000000000028, 0.007452000000000008, 552, 690, 828, 139162, 139024, 138, 276, undefined, 1493339289728, 
Booster, Armed, 15200, 32.99069000000044, -106.97165999999956, 139, 278, 417, 0.055599999999999886, 0.08340000000000028, 0.007506000000000008, 556, 695, 834, 140161, 140022, 139, 278, undefined, 1493339290742, 
Sustainer, Armed, 15200, 32.99069000000044, -106.97165999999956, 139, 278, 417, 0.055599999999999886, 0.08340000000000028, 0.007506000000000008, 556, 695, 834, 140161, 140022, 139, 278, undefined, 1493339290742, 
Booster, Armed, 15300, 32.990700000000444, -106.97164999999956, 140, 280, 420, 0.05599999999999988, 0.08400000000000028, 0.0075600000000000086, 560, 700, 840, 141160, 141020, 140, 280, undefined, 1493339291751, 
Sustainer, Armed, 15300, 32.990700000000444, -106.97164999999956, 140, 280, 420, 0.05599999999999988, 0.08400000000000028, 0.0075600000000000086, 560, 700, 840, 141160, 141020, 140, 280, undefined, 1493339291751, 
Booster, Armed, 15400, 32.99071000000045, -106.97163999999955, 141, 282, 423, 0.05639999999999988, 0.08460000000000029, 0.007614000000000009, 564, 705, 846, 142159, 142018, 141, 282, undefined, 1493339292767, 
Sustainer, Armed, 15400, 32.99071000000045, -106.97163999999955, 141, 282, 423, 0.05639999999999988, 0.08460000000000029, 0.007614000000000009, 564, 705, 846, 142159, 142018, 141, 282, undefined, 1493339292767, 
Booster, Armed, 15500, 32.99072000000045, -106.97162999999955, 142, 284, 426, 0.05679999999999988, 0.08520000000000029, 0.007668000000000009, 568, 710, 852, 143158, 143016, 142, 284, undefined, 1493339293785, 
Sustainer, Armed, 15500, 32.99072000000045, -106.97162999999955, 142, 284, 426, 0.05679999999999988, 0.08520000000000029, 0.007668000000000009, 568, 710, 852, 143158, 143016, 142, 284, undefined, 1493339293786, 
Booster, Armed, 15600, 32.990730000000454, -106.97161999999955, 143, 286, 429, 0.057199999999999876, 0.08580000000000029, 0.007722000000000009, 572, 715, 858, 144157, 144014, 143, 286, undefined, 1493339294791, 
Sustainer, Armed, 15600, 32.990730000000454, -106.97161999999955, 143, 286, 429, 0.057199999999999876, 0.08580000000000029, 0.007722000000000009, 572, 715, 858, 144157, 144014, 143, 286, undefined, 1493339294791, 
Booster, Armed, 15700, 32.99074000000046, -106.97160999999954, 144, 288, 432, 0.057599999999999874, 0.0864000000000003, 0.0077760000000000095, 576, 720, 864, 145156, 145012, 144, 288, undefined, 1493339295802, 
Sustainer, Armed, 15700, 32.99074000000046, -106.97160999999954, 144, 288, 432, 0.057599999999999874, 0.0864000000000003, 0.0077760000000000095, 576, 720, 864, 145156, 145012, 144, 288, undefined, 1493339295802, 
Booster, Armed, 15800, 32.99075000000046, -106.97159999999954, 145, 290, 435, 0.05799999999999987, 0.0870000000000003, 0.007830000000000009, 580, 725, 870, 146155, 146010, 145, 290, undefined, 1493339296820, 
Sustainer, Armed, 15800, 32.99075000000046, -106.97159999999954, 145, 290, 435, 0.05799999999999987, 0.0870000000000003, 0.007830000000000009, 580, 725, 870, 146155, 146010, 145, 290, undefined, 1493339296820, 
Booster, Armed, 15900, 32.99076000000046, -106.97158999999954, 146, 292, 438, 0.05839999999999987, 0.0876000000000003, 0.007884000000000009, 584, 730, 876, 147154, 147008, 146, 292, undefined, 1493339297827, 
Sustainer, Armed, 15900, 32.99076000000046, -106.97158999999954, 146, 292, 438, 0.05839999999999987, 0.0876000000000003, 0.007884000000000009, 584, 730, 876, 147154, 147008, 146, 292, undefined, 1493339297827, 
Booster, Armed, 16000, 32.99077000000047, -106.97157999999953, 147, 294, 441, 0.058799999999999866, 0.0882000000000003, 0.00793800000000001, 588, 735, 882, 148153, 148006, 147, 294, undefined, 1493339298843, 
Sustainer, Armed, 16000, 32.99077000000047, -106.97157999999953, 147, 294, 441, 0.058799999999999866, 0.0882000000000003, 0.00793800000000001, 588, 735, 882, 148153, 148006, 147, 294, undefined, 1493339298843, 
Booster, Armed, 16100, 32.99078000000047, -106.97156999999953, 148, 296, 444, 0.059199999999999864, 0.08880000000000031, 0.00799200000000001, 592, 740, 888, 149152, 149004, 148, 296, undefined, 1493339299864, 
