part, mode, altitude, latitude, longitude, accelerometer_x, accelerometer_y, accelerometer_z, yaw, pitch, roll, magnetometer_x, magnetometer_y, magnetometer_z, gps_altitude, kalman_altitude, kalman_velocity, ematch_status, temperature, timestamp
Booster, Armed, 1300.02, 32.9893002, -106.97304980000001, 2, 4, 6, 0.0008, 0.0012, 0.000108, 8, 10, 12, 3298, 2296, 2, 4, undefined, 1493684947222
Sustainer, Armed, 1300.002, 32.9893002, -106.97304980000001, 2, 4, 6, 0.0008, 0.0012, 0.000108, 8, 10, 12, 4296, 3296, 2, 4, undefined, 1493684947222
Booster, Armed, 1300.03, 32.989300300000004, -106.97304970000002, 3, 6, 9, 0.0012000000000000001, 0.0018, 0.00016199999999999998, 12, 15, 18, 4297, 3294, 3, 6, undefined, 1493684947253
Sustainer, Armed, 1300.003, 32.989300300000004, -106.97304970000002, 3, 6, 9, 0.0012000000000000001, 0.0018, 0.00016199999999999998, 12, 15, 18, 5294, 4294, 3, 6, undefined, 1493684947253
Booster, Armed, 1300.04, 32.989300400000005, -106.97304960000002, 4, 8, 12, 0.0016, 0.0024, 0.000216, 16, 20, 24, 5296, 4292, 4, 8, undefined, 1493684947285
Sustainer, Armed, 1300.004, 32.989300400000005, -106.97304960000002, 4, 8, 12, 0.0016, 0.0024, 0.000216, 16, 20, 24, 6292, 5292, 4, 8, undefined, 1493684947285
Booster, Armed, 1300.05, 32.989300500000006, -106.97304950000003, 5, 10, 15, 0.002, 0.0029999999999999996, 0.00027, 20, 25, 30, 6295, 5290, 5, 10, undefined, 1493684947321
Sustainer, Armed, 1300.0049999999999, 32.989300500000006, -106.97304950000003, 5, 10, 15, 0.002, 0.0029999999999999996, 0.00027, 20, 25, 30, 7290, 6290, 5, 10, undefined, 1493684947321
Booster, Armed, 1300.06, 32.98930060000001, -106.97304940000004, 6, 12, 18, 0.0024000000000000002, 0.0035999999999999995, 0.000324, 24, 30, 36, 7294, 6288, 6, 12, undefined, 1493684947352
Sustainer, Armed, 1300.0059999999999, 32.98930060000001, -106.97304940000004, 6, 12, 18, 0.0024000000000000002, 0.0035999999999999995, 0.000324, 24, 30, 36, 8288, 7288, 6, 12, undefined, 1493684947352
Booster, Armed, 1300.07, 32.98930070000001, -106.97304930000004, 7, 14, 21, 0.0028000000000000004, 0.0042, 0.000378, 28, 35, 42, 8293, 7286, 7, 14, undefined, 1493684947383
Sustainer, Armed, 1300.0069999999998, 32.98930070000001, -106.97304930000004, 7, 14, 21, 0.0028000000000000004, 0.0042, 0.000378, 28, 35, 42, 9286, 8286, 7, 14, undefined, 1493684947383
Booster, Armed, 1300.08, 32.98930080000001, -106.97304920000005, 8, 16, 24, 0.0032000000000000006, 0.0048, 0.00043200000000000004, 32, 40, 48, 9292, 8284, 8, 16, undefined, 1493684947404
Sustainer, Armed, 1300.0079999999998, 32.98930080000001, -106.97304920000005, 8, 16, 24, 0.0032000000000000006, 0.0048, 0.00043200000000000004, 32, 40, 48, 10284, 9284, 8, 16, undefined, 1493684947404
Booster, Armed, 1300.09, 32.98930090000001, -106.97304910000005, 9, 18, 27, 0.0036000000000000008, 0.005399999999999999, 0.00048600000000000005, 36, 45, 54, 10291, 9282, 9, 18, undefined, 1493684947436
Sustainer, Armed, 1300.0089999999998, 32.98930090000001, -106.97304910000005, 9, 18, 27, 0.0036000000000000008, 0.005399999999999999, 0.00048600000000000005, 36, 45, 54, 11282, 10282, 9, 18, undefined, 1493684947436
Booster, Armed, 1300.1, 32.98930100000001, -106.97304900000006, 10, 20, 30, 0.004000000000000001, 0.005999999999999999, 0.00054, 40, 50, 60, 11290, 10280, 10, 20, undefined, 1493684947467
Sustainer, Armed, 1300.0099999999998, 32.98930100000001, -106.97304900000006, 10, 20, 30, 0.004000000000000001, 0.005999999999999999, 0.00054, 40, 50, 60, 12280, 11280, 10, 20, undefined, 1493684947467
Booster, Armed, 1300.11, 32.98930110000001, -106.97304890000007, 11, 22, 33, 0.004400000000000001, 0.006599999999999999, 0.000594, 44, 55, 66, 12289, 11278, 11, 22, undefined, 1493684947498
Sustainer, Armed, 1300.0109999999997, 32.98930110000001, -106.97304890000007, 11, 22, 33, 0.004400000000000001, 0.006599999999999999, 0.000594, 44, 55, 66, 13278, 12278, 11, 22, undefined, 1493684947498
Booster, Armed, 1300.12, 32.989301200000014, -106.97304880000007, 12, 24, 36, 0.004800000000000001, 0.007199999999999999, 0.000648, 48, 60, 72, 13288, 12276, 12, 24, undefined, 1493684947534
Sustainer, Armed, 1300.0119999999997, 32.989301200000014, -106.97304880000007, 12, 24, 36, 0.004800000000000001, 0.007199999999999999, 0.000648, 48, 60, 72, 14276, 13276, 12, 24, undefined, 1493684947534
Booster, Armed, 1300.1299999999999, 32.989301300000015, -106.97304870000008, 13, 26, 39, 0.0052000000000000015, 0.007799999999999999, 0.000702, 52, 65, 78, 14287, 13274, 13, 26, undefined, 1493684947565
Sustainer, Armed, 1300.0129999999997, 32.989301300000015, -106.97304870000008, 13, 26, 39, 0.0052000000000000015, 0.007799999999999999, 0.000702, 52, 65, 78, 15274, 14274, 13, 26, undefined, 1493684947565
Booster, Armed, 1300.1399999999999, 32.989301400000016, -106.97304860000008, 14, 28, 42, 0.005600000000000002, 0.0084, 0.000756, 56, 70, 84, 15286, 14272, 14, 28, undefined, 1493684947597
Sustainer, Armed, 1300.0139999999997, 32.989301400000016, -106.97304860000008, 14, 28, 42, 0.005600000000000002, 0.0084, 0.000756, 56, 70, 84, 16272, 15272, 14, 28, undefined, 1493684947597
Booster, Armed, 1300.1499999999999, 32.98930150000002, -106.97304850000009, 15, 30, 45, 0.006000000000000002, 0.009, 0.0008100000000000001, 60, 75, 90, 16285, 15270, 15, 30, undefined, 1493684947617
Sustainer, Armed, 1300.0149999999996, 32.98930150000002, -106.97304850000009, 15, 30, 45, 0.006000000000000002, 0.009, 0.0008100000000000001, 60, 75, 90, 17270, 16270, 15, 30, undefined, 1493684947617
Booster, Armed, 1300.1599999999999, 32.98930160000002, -106.9730484000001, 16, 32, 48, 0.006400000000000002, 0.0096, 0.0008640000000000001, 64, 80, 96, 17284, 16268, 16, 32, undefined, 1493684947652
Sustainer, Armed, 1300.0159999999996, 32.98930160000002, -106.9730484000001, 16, 32, 48, 0.006400000000000002, 0.0096, 0.0008640000000000001, 64, 80, 96, 18268, 17268, 16, 32, undefined, 1493684947652
Booster, Armed, 1300.1699999999998, 32.98930170000002, -106.9730483000001, 17, 34, 51, 0.006800000000000002, 0.010199999999999999, 0.0009180000000000001, 68, 85, 102, 18283, 17266, 17, 34, undefined, 1493684947684
Sustainer, Armed, 1300.0169999999996, 32.98930170000002, -106.9730483000001, 17, 34, 51, 0.006800000000000002, 0.010199999999999999, 0.0009180000000000001, 68, 85, 102, 19266, 18266, 17, 34, undefined, 1493684947684
Booster, Armed, 1300.1799999999998, 32.98930180000002, -106.97304820000011, 18, 36, 54, 0.007200000000000002, 0.010799999999999999, 0.0009720000000000001, 72, 90, 108, 19282, 18264, 18, 36, undefined, 1493684947715
Sustainer, Armed, 1300.0179999999996, 32.98930180000002, -106.97304820000011, 18, 36, 54, 0.007200000000000002, 0.010799999999999999, 0.0009720000000000001, 72, 90, 108, 20264, 19264, 18, 36, undefined, 1493684947715
Booster, Armed, 1300.1899999999998, 32.98930190000002, -106.97304810000011, 19, 38, 57, 0.007600000000000003, 0.011399999999999999, 0.001026, 76, 95, 114, 20281, 19262, 19, 38, undefined, 1493684947751
Sustainer, Armed, 1300.0189999999996, 32.98930190000002, -106.97304810000011, 19, 38, 57, 0.007600000000000003, 0.011399999999999999, 0.001026, 76, 95, 114, 21262, 20262, 19, 38, undefined, 1493684947751
Booster, Armed, 1300.1999999999998, 32.98930200000002, -106.97304800000012, 20, 40, 60, 0.008000000000000002, 0.011999999999999999, 0.00108, 80, 100, 120, 21280, 20260, 20, 40, undefined, 1493684947782
Sustainer, Armed, 1300.0199999999995, 32.98930200000002, -106.97304800000012, 20, 40, 60, 0.008000000000000002, 0.011999999999999999, 0.00108, 80, 100, 120, 22260, 21260, 20, 40, undefined, 1493684947782
Booster, Armed, 1300.2099999999998, 32.989302100000025, -106.97304790000013, 21, 42, 63, 0.008400000000000001, 0.012599999999999998, 0.001134, 84, 105, 126, 22279, 21258, 21, 42, undefined, 1493684947813
Sustainer, Armed, 1300.0209999999995, 32.989302100000025, -106.97304790000013, 21, 42, 63, 0.008400000000000001, 0.012599999999999998, 0.001134, 84, 105, 126, 23258, 22258, 21, 42, undefined, 1493684947813
Booster, Armed, 1300.2199999999998, 32.989302200000026, -106.97304780000013, 22, 44, 66, 0.0088, 0.013199999999999998, 0.001188, 88, 110, 132, 23278, 22256, 22, 44, undefined, 1493684947844
Sustainer, Armed, 1300.0219999999995, 32.989302200000026, -106.97304780000013, 22, 44, 66, 0.0088, 0.013199999999999998, 0.001188, 88, 110, 132, 24256, 23256, 22, 44, undefined, 1493684947844
Booster, Armed, 1300.2299999999998, 32.98930230000003, -106.97304770000014, 23, 46, 69, 0.0092, 0.013799999999999998, 0.001242, 92, 115, 138, 24277, 23254, 23, 46, undefined, 1493684947865
Sustainer, Armed, 1300.0229999999995, 32.98930230000003, -106.97304770000014, 23, 46, 69, 0.0092, 0.013799999999999998, 0.001242, 92, 115, 138, 25254, 24254, 23, 46, undefined, 1493684947865
Booster, Armed, 1300.2399999999998, 32.98930240000003, -106.97304760000014, 24, 48, 72, 0.0096, 0.014399999999999998, 0.001296, 96, 120, 144, 25276, 24252, 24, 48, undefined, 1493684947896
Sustainer, Armed, 1300.0239999999994, 32.98930240000003, -106.97304760000014, 24, 48, 72, 0.0096, 0.014399999999999998, 0.001296, 96, 120, 144, 26252, 25252, 24, 48, undefined, 1493684947896
Booster, Armed, 1300.2499999999998, 32.98930250000003, -106.97304750000015, 25, 50, 75, 0.009999999999999998, 0.014999999999999998, 0.00135, 100, 125, 150, 26275, 25250, 25, 50, undefined, 1493684947927
Sustainer, Armed, 1300.0249999999994, 32.98930250000003, -106.97304750000015, 25, 50, 75, 0.009999999999999998, 0.014999999999999998, 0.00135, 100, 125, 150, 27250, 26250, 25, 50, undefined, 1493684947927
Booster, Armed, 1300.2599999999998, 32.98930260000003, -106.97304740000015, 26, 52, 78, 0.010399999999999998, 0.015599999999999998, 0.001404, 104, 130, 156, 27274, 26248, 26, 52, undefined, 1493684947959
Sustainer, Armed, 1300.0259999999994, 32.98930260000003, -106.97304740000015, 26, 52, 78, 0.010399999999999998, 0.015599999999999998, 0.001404, 104, 130, 156, 28248, 27248, 26, 52, undefined, 1493684947959
Booster, Armed, 1300.2699999999998, 32.98930270000003, -106.97304730000016, 27, 54, 81, 0.010799999999999997, 0.0162, 0.001458, 108, 135, 162, 28273, 27246, 27, 54, undefined, 1493684947989
Sustainer, Armed, 1300.0269999999994, 32.98930270000003, -106.97304730000016, 27, 54, 81, 0.010799999999999997, 0.0162, 0.001458, 108, 135, 162, 29246, 28246, 27, 54, undefined, 1493684947989
Booster, Armed, 1300.2799999999997, 32.98930280000003, -106.97304720000017, 28, 56, 84, 0.011199999999999996, 0.0168, 0.001512, 112, 140, 168, 29272, 28244, 28, 56, undefined, 1493684948009
Sustainer, Armed, 1300.0279999999993, 32.98930280000003, -106.97304720000017, 28, 56, 84, 0.011199999999999996, 0.0168, 0.001512, 112, 140, 168, 30244, 29244, 28, 56, undefined, 1493684948009
Booster, Armed, 1300.2899999999997, 32.989302900000034, -106.97304710000017, 29, 58, 87, 0.011599999999999996, 0.0174, 0.0015660000000000001, 116, 145, 174, 30271, 29242, 29, 58, undefined, 1493684948029
Sustainer, Armed, 1300.0289999999993, 32.989302900000034, -106.97304710000017, 29, 58, 87, 0.011599999999999996, 0.0174, 0.0015660000000000001, 116, 145, 174, 31242, 30242, 29, 58, undefined, 1493684948029
Booster, Armed, 1300.2999999999997, 32.989303000000035, -106.97304700000018, 30, 60, 90, 0.011999999999999995, 0.018, 0.0016200000000000001, 120, 150, 180, 31270, 30240, 30, 60, undefined, 1493684948049
Sustainer, Armed, 1300.0299999999993, 32.989303000000035, -106.97304700000018, 30, 60, 90, 0.011999999999999995, 0.018, 0.0016200000000000001, 120, 150, 180, 32240, 31240, 30, 60, undefined, 1493684948049
Booster, Armed, 1300.3099999999997, 32.989303100000036, -106.97304690000018, 31, 62, 93, 0.012399999999999994, 0.0186, 0.0016740000000000001, 124, 155, 186, 32269, 31238, 31, 62, undefined, 1493684948069
Sustainer, Armed, 1300.0309999999993, 32.989303100000036, -106.97304690000018, 31, 62, 93, 0.012399999999999994, 0.0186, 0.0016740000000000001, 124, 155, 186, 33238, 32238, 31, 62, undefined, 1493684948069
Booster, Armed, 1300.3199999999997, 32.98930320000004, -106.97304680000019, 32, 64, 96, 0.012799999999999994, 0.0192, 0.0017280000000000002, 128, 160, 192, 33268, 32236, 32, 64, undefined, 1493684948089
Sustainer, Armed, 1300.0319999999992, 32.98930320000004, -106.97304680000019, 32, 64, 96, 0.012799999999999994, 0.0192, 0.0017280000000000002, 128, 160, 192, 34236, 33236, 32, 64, undefined, 1493684948089
Booster, Armed, 1300.3299999999997, 32.98930330000004, -106.9730467000002, 33, 66, 99, 0.013199999999999993, 0.019799999999999998, 0.0017820000000000002, 132, 165, 198, 34267, 33234, 33, 66, undefined, 1493684948109
Sustainer, Armed, 1300.0329999999992, 32.98930330000004, -106.9730467000002, 33, 66, 99, 0.013199999999999993, 0.019799999999999998, 0.0017820000000000002, 132, 165, 198, 35234, 34234, 33, 66, undefined, 1493684948109
Booster, Armed, 1300.3399999999997, 32.98930340000004, -106.9730466000002, 34, 68, 102, 0.013599999999999992, 0.020399999999999998, 0.0018360000000000002, 136, 170, 204, 35266, 34232, 34, 68, undefined, 1493684948129
Sustainer, Armed, 1300.0339999999992, 32.98930340000004, -106.9730466000002, 34, 68, 102, 0.013599999999999992, 0.020399999999999998, 0.0018360000000000002, 136, 170, 204, 36232, 35232, 34, 68, undefined, 1493684948129
Booster, Armed, 1300.3499999999997, 32.98930350000004, -106.97304650000021, 35, 70, 105, 0.013999999999999992, 0.020999999999999998, 0.0018900000000000002, 140, 175, 210, 36265, 35230, 35, 70, undefined, 1493684948150
Sustainer, Armed, 1300.0349999999992, 32.98930350000004, -106.97304650000021, 35, 70, 105, 0.013999999999999992, 0.020999999999999998, 0.0018900000000000002, 140, 175, 210, 37230, 36230, 35, 70, undefined, 1493684948150
Booster, Armed, 1300.3599999999997, 32.98930360000004, -106.97304640000021, 36, 72, 108, 0.014399999999999991, 0.021599999999999998, 0.0019440000000000002, 144, 180, 216, 37264, 36228, 36, 72, undefined, 1493684948170
Sustainer, Armed, 1300.0359999999991, 32.98930360000004, -106.97304640000021, 36, 72, 108, 0.014399999999999991, 0.021599999999999998, 0.0019440000000000002, 144, 180, 216, 38228, 37228, 36, 72, undefined, 1493684948170
Booster, Armed, 1300.3699999999997, 32.98930370000004, -106.97304630000022, 37, 74, 111, 0.01479999999999999, 0.022199999999999998, 0.001998, 148, 185, 222, 38263, 37226, 37, 74, undefined, 1493684948190
Sustainer, Armed, 1300.0369999999991, 32.98930370000004, -106.97304630000022, 37, 74, 111, 0.01479999999999999, 0.022199999999999998, 0.001998, 148, 185, 222, 39226, 38226, 37, 74, undefined, 1493684948190
Booster, Armed, 1300.3799999999997, 32.989303800000044, -106.97304620000023, 38, 76, 114, 0.01519999999999999, 0.022799999999999997, 0.002052, 152, 190, 228, 39262, 38224, 38, 76, undefined, 1493684948211
Sustainer, Armed, 1300.037999999999, 32.989303800000044, -106.97304620000023, 38, 76, 114, 0.01519999999999999, 0.022799999999999997, 0.002052, 152, 190, 228, 40224, 39224, 38, 76, undefined, 1493684948211
Booster, Armed, 1300.3899999999996, 32.989303900000046, -106.97304610000023, 39, 78, 117, 0.015599999999999989, 0.023399999999999997, 0.002106, 156, 195, 234, 40261, 39222, 39, 78, undefined, 1493684948231
Sustainer, Armed, 1300.038999999999, 32.989303900000046, -106.97304610000023, 39, 78, 117, 0.015599999999999989, 0.023399999999999997, 0.002106, 156, 195, 234, 41222, 40222, 39, 78, undefined, 1493684948231
Booster, Armed, 1300.3999999999996, 32.98930400000005, -106.97304600000024, 40, 80, 120, 0.01599999999999999, 0.023999999999999997, 0.0021599999999999996, 160, 200, 240, 41260, 40220, 40, 80, undefined, 1493684948251
Sustainer, Armed, 1300.039999999999, 32.98930400000005, -106.97304600000024, 40, 80, 120, 0.01599999999999999, 0.023999999999999997, 0.0021599999999999996, 160, 200, 240, 42220, 41220, 40, 80, undefined, 1493684948251
Booster, Armed, 1300.4099999999996, 32.98930410000005, -106.97304590000024, 41, 82, 123, 0.01639999999999999, 0.024599999999999997, 0.0022139999999999994, 164, 205, 246, 42259, 41218, 41, 82, undefined, 1493684948271
Sustainer, Armed, 1300.040999999999, 32.98930410000005, -106.97304590000024, 41, 82, 123, 0.01639999999999999, 0.024599999999999997, 0.0022139999999999994, 164, 205, 246, 43218, 42218, 41, 82, undefined, 1493684948271
Booster, Armed, 1300.4199999999996, 32.98930420000005, -106.97304580000025, 42, 84, 126, 0.016799999999999992, 0.025199999999999997, 0.002267999999999999, 168, 210, 252, 43258, 42216, 42, 84, undefined, 1493684948291
Sustainer, Armed, 1300.041999999999, 32.98930420000005, -106.97304580000025, 42, 84, 126, 0.016799999999999992, 0.025199999999999997, 0.002267999999999999, 168, 210, 252, 44216, 43216, 42, 84, undefined, 1493684948291
Booster, Armed, 1300.4299999999996, 32.98930430000005, -106.97304570000026, 43, 86, 129, 0.017199999999999993, 0.025799999999999997, 0.002321999999999999, 172, 215, 258, 44257, 43214, 43, 86, undefined, 1493684948318
Sustainer, Armed, 1300.042999999999, 32.98930430000005, -106.97304570000026, 43, 86, 129, 0.017199999999999993, 0.025799999999999997, 0.002321999999999999, 172, 215, 258, 45214, 44214, 43, 86, undefined, 1493684948318
Booster, Armed, 1300.4399999999996, 32.98930440000005, -106.97304560000026, 44, 88, 132, 0.017599999999999994, 0.026399999999999996, 0.0023759999999999988, 176, 220, 264, 45256, 44212, 44, 88, undefined, 1493684948350
Sustainer, Armed, 1300.043999999999, 32.98930440000005, -106.97304560000026, 44, 88, 132, 0.017599999999999994, 0.026399999999999996, 0.0023759999999999988, 176, 220, 264, 46212, 45212, 44, 88, undefined, 1493684948350
Booster, Armed, 1300.4499999999996, 32.98930450000005, -106.97304550000027, 45, 90, 135, 0.017999999999999995, 0.026999999999999996, 0.0024299999999999986, 180, 225, 270, 46255, 45210, 45, 90, undefined, 1493684948385
Sustainer, Armed, 1300.044999999999, 32.98930450000005, -106.97304550000027, 45, 90, 135, 0.017999999999999995, 0.026999999999999996, 0.0024299999999999986, 180, 225, 270, 47210, 46210, 45, 90, undefined, 1493684948385
Booster, Armed, 1300.4599999999996, 32.989304600000054, -106.97304540000027, 46, 92, 138, 0.018399999999999996, 0.027599999999999996, 0.0024839999999999984, 184, 230, 276, 47254, 46208, 46, 92, undefined, 1493684948417
Sustainer, Armed, 1300.045999999999, 32.989304600000054, -106.97304540000027, 46, 92, 138, 0.018399999999999996, 0.027599999999999996, 0.0024839999999999984, 184, 230, 276, 48208, 47208, 46, 92, undefined, 1493684948417
Booster, Armed, 1300.4699999999996, 32.989304700000055, -106.97304530000028, 47, 94, 141, 0.018799999999999997, 0.028199999999999996, 0.002537999999999998, 188, 235, 282, 48253, 47206, 47, 94, undefined, 1493684948448
Sustainer, Armed, 1300.046999999999, 32.989304700000055, -106.97304530000028, 47, 94, 141, 0.018799999999999997, 0.028199999999999996, 0.002537999999999998, 188, 235, 282, 49206, 48206, 47, 94, undefined, 1493684948448
Booster, Armed, 1300.4799999999996, 32.989304800000056, -106.97304520000029, 48, 96, 144, 0.0192, 0.028799999999999996, 0.002591999999999998, 192, 240, 288, 49252, 48204, 48, 96, undefined, 1493684948479
Sustainer, Armed, 1300.0479999999989, 32.989304800000056, -106.97304520000029, 48, 96, 144, 0.0192, 0.028799999999999996, 0.002591999999999998, 192, 240, 288, 50204, 49204, 48, 96, undefined, 1493684948479
Booster, Armed, 1300.4899999999996, 32.98930490000006, -106.97304510000029, 49, 98, 147, 0.0196, 0.029399999999999996, 0.0026459999999999977, 196, 245, 294, 50251, 49202, 49, 98, undefined, 1493684948500
Sustainer, Armed, 1300.0489999999988, 32.98930490000006, -106.97304510000029, 49, 98, 147, 0.0196, 0.029399999999999996, 0.0026459999999999977, 196, 245, 294, 51202, 50202, 49, 98, undefined, 1493684948500
Booster, Armed, 1300.4999999999995, 32.98930500000006, -106.9730450000003, 50, 100, 150, 0.02, 0.029999999999999995, 0.0026999999999999975, 200, 250, 300, 51250, 50200, 50, 100, undefined, 1493684948531
Sustainer, Armed, 1300.0499999999988, 32.98930500000006, -106.9730450000003, 50, 100, 150, 0.02, 0.029999999999999995, 0.0026999999999999975, 200, 250, 300, 52200, 51200, 50, 100, undefined, 1493684948531
Booster, Armed, 1300.5099999999995, 32.98930510000006, -106.9730449000003, 51, 102, 153, 0.0204, 0.030599999999999995, 0.0027539999999999973, 204, 255, 306, 52249, 51198, 51, 102, undefined, 1493684948562
Sustainer, Armed, 1300.0509999999988, 32.98930510000006, -106.9730449000003, 51, 102, 153, 0.0204, 0.030599999999999995, 0.0027539999999999973, 204, 255, 306, 53198, 52198, 51, 102, undefined, 1493684948562
Booster, Armed, 1300.5199999999995, 32.98930520000006, -106.97304480000031, 52, 104, 156, 0.020800000000000003, 0.031199999999999995, 0.002807999999999997, 208, 260, 312, 53248, 52196, 52, 104, undefined, 1493684948593
Sustainer, Armed, 1300.0519999999988, 32.98930520000006, -106.97304480000031, 52, 104, 156, 0.020800000000000003, 0.031199999999999995, 0.002807999999999997, 208, 260, 312, 54196, 53196, 52, 104, undefined, 1493684948593
Booster, Armed, 1300.5299999999995, 32.98930530000006, -106.97304470000032, 53, 106, 159, 0.021200000000000004, 0.031799999999999995, 0.002861999999999997, 212, 265, 318, 54247, 53194, 53, 106, undefined, 1493684948614
Sustainer, Armed, 1300.0529999999987, 32.98930530000006, -106.97304470000032, 53, 106, 159, 0.021200000000000004, 0.031799999999999995, 0.002861999999999997, 212, 265, 318, 55194, 54194, 53, 106, undefined, 1493684948614
Booster, Armed, 1300.5399999999995, 32.98930540000006, -106.97304460000032, 54, 108, 162, 0.021600000000000005, 0.0324, 0.0029159999999999967, 216, 270, 324, 55246, 54192, 54, 108, undefined, 1493684948645
Sustainer, Armed, 1300.0539999999987, 32.98930540000006, -106.97304460000032, 54, 108, 162, 0.021600000000000005, 0.0324, 0.0029159999999999967, 216, 270, 324, 56192, 55192, 54, 108, undefined, 1493684948645
Booster, Armed, 1300.5499999999995, 32.989305500000064, -106.97304450000033, 55, 110, 165, 0.022000000000000006, 0.033, 0.0029699999999999965, 220, 275, 330, 56245, 55190, 55, 110, undefined, 1493684948676
Sustainer, Armed, 1300.0549999999987, 32.989305500000064, -106.97304450000033, 55, 110, 165, 0.022000000000000006, 0.033, 0.0029699999999999965, 220, 275, 330, 57190, 56190, 55, 110, undefined, 1493684948676
Booster, Armed, 1300.5599999999995, 32.989305600000066, -106.97304440000033, 56, 112, 168, 0.022400000000000007, 0.033600000000000005, 0.0030239999999999963, 224, 280, 336, 57244, 56188, 56, 112, undefined, 1493684948707
Sustainer, Armed, 1300.0559999999987, 32.989305600000066, -106.97304440000033, 56, 112, 168, 0.022400000000000007, 0.033600000000000005, 0.0030239999999999963, 224, 280, 336, 58188, 57188, 56, 112, undefined, 1493684948707
Booster, Armed, 1300.5699999999995, 32.98930570000007, -106.97304430000034, 57, 114, 171, 0.022800000000000008, 0.03420000000000001, 0.003077999999999996, 228, 285, 342, 58243, 57186, 57, 114, undefined, 1493684948728
Sustainer, Armed, 1300.0569999999987, 32.98930570000007, -106.97304430000034, 57, 114, 171, 0.022800000000000008, 0.03420000000000001, 0.003077999999999996, 228, 285, 342, 59186, 58186, 57, 114, undefined, 1493684948728
Booster, Armed, 1300.5799999999995, 32.98930580000007, -106.97304420000034, 58, 116, 174, 0.02320000000000001, 0.03480000000000001, 0.003131999999999996, 232, 290, 348, 59242, 58184, 58, 116, undefined, 1493684948759
Sustainer, Armed, 1300.0579999999986, 32.98930580000007, -106.97304420000034, 58, 116, 174, 0.02320000000000001, 0.03480000000000001, 0.003131999999999996, 232, 290, 348, 60184, 59184, 58, 116, undefined, 1493684948759
Booster, Armed, 1300.5899999999995, 32.98930590000007, -106.97304410000035, 59, 118, 177, 0.02360000000000001, 0.035400000000000015, 0.0031859999999999957, 236, 295, 354, 60241, 59182, 59, 118, undefined, 1493684948790
Sustainer, Armed, 1300.0589999999986, 32.98930590000007, -106.97304410000035, 59, 118, 177, 0.02360000000000001, 0.035400000000000015, 0.0031859999999999957, 236, 295, 354, 61182, 60182, 59, 118, undefined, 1493684948790
Booster, Armed, 1300.5999999999995, 32.98930600000007, -106.97304400000036, 60, 120, 180, 0.02400000000000001, 0.03600000000000002, 0.0032399999999999955, 240, 300, 360, 61240, 60180, 60, 120, undefined, 1493684948821
Sustainer, Armed, 1300.0599999999986, 32.98930600000007, -106.97304400000036, 60, 120, 180, 0.02400000000000001, 0.03600000000000002, 0.0032399999999999955, 240, 300, 360, 62180, 61180, 60, 120, undefined, 1493684948821
Booster, Armed, 1300.6099999999994, 32.98930610000007, -106.97304390000036, 61, 122, 183, 0.024400000000000012, 0.03660000000000002, 0.0032939999999999953, 244, 305, 366, 62239, 61178, 61, 122, undefined, 1493684948842
Sustainer, Armed, 1300.0609999999986, 32.98930610000007, -106.97304390000036, 61, 122, 183, 0.024400000000000012, 0.03660000000000002, 0.0032939999999999953, 244, 305, 366, 63178, 62178, 61, 122, undefined, 1493684948842
Booster, Armed, 1300.6199999999994, 32.98930620000007, -106.97304380000037, 62, 124, 186, 0.024800000000000013, 0.037200000000000025, 0.003347999999999995, 248, 310, 372, 63238, 62176, 62, 124, undefined, 1493684948867
Sustainer, Armed, 1300.0619999999985, 32.98930620000007, -106.97304380000037, 62, 124, 186, 0.024800000000000013, 0.037200000000000025, 0.003347999999999995, 248, 310, 372, 64176, 63176, 62, 124, undefined, 1493684948867
Booster, Armed, 1300.6299999999994, 32.989306300000074, -106.97304370000037, 63, 126, 189, 0.025200000000000014, 0.03780000000000003, 0.003401999999999995, 252, 315, 378, 64237, 63174, 63, 126, undefined, 1493684948898
Sustainer, Armed, 1300.0629999999985, 32.989306300000074, -106.97304370000037, 63, 126, 189, 0.025200000000000014, 0.03780000000000003, 0.003401999999999995, 252, 315, 378, 65174, 64174, 63, 126, undefined, 1493684948898
Booster, Armed, 1300.6399999999994, 32.989306400000075, -106.97304360000038, 64, 128, 192, 0.025600000000000015, 0.03840000000000003, 0.0034559999999999947, 256, 320, 384, 65236, 64172, 64, 128, undefined, 1493684948929
Sustainer, Armed, 1300.0639999999985, 32.989306400000075, -106.97304360000038, 64, 128, 192, 0.025600000000000015, 0.03840000000000003, 0.0034559999999999947, 256, 320, 384, 66172, 65172, 64, 128, undefined, 1493684948929
Booster, Armed, 1300.6499999999994, 32.989306500000076, -106.97304350000039, 65, 130, 195, 0.026000000000000016, 0.039000000000000035, 0.0035099999999999945, 260, 325, 390, 66235, 65170, 65, 130, undefined, 1493684948950
Sustainer, Armed, 1300.0649999999985, 32.989306500000076, -106.97304350000039, 65, 130, 195, 0.026000000000000016, 0.039000000000000035, 0.0035099999999999945, 260, 325, 390, 67170, 66170, 65, 130, undefined, 1493684948950
Booster, Armed, 1300.6599999999994, 32.98930660000008, -106.97304340000039, 66, 132, 198, 0.026400000000000017, 0.03960000000000004, 0.0035639999999999943, 264, 330, 396, 67234, 66168, 66, 132, undefined, 1493684948981
Sustainer, Armed, 1300.0659999999984, 32.98930660000008, -106.97304340000039, 66, 132, 198, 0.026400000000000017, 0.03960000000000004, 0.0035639999999999943, 264, 330, 396, 68168, 67168, 66, 132, undefined, 1493684948981
Booster, Armed, 1300.6699999999994, 32.98930670000008, -106.9730433000004, 67, 134, 201, 0.026800000000000018, 0.04020000000000004, 0.003617999999999994, 268, 335, 402, 68233, 67166, 67, 134, undefined, 1493684949012
Sustainer, Armed, 1300.0669999999984, 32.98930670000008, -106.9730433000004, 67, 134, 201, 0.026800000000000018, 0.04020000000000004, 0.003617999999999994, 268, 335, 402, 69166, 68166, 67, 134, undefined, 1493684949012
Booster, Armed, 1300.6799999999994, 32.98930680000008, -106.9730432000004, 68, 136, 204, 0.02720000000000002, 0.040800000000000045, 0.003671999999999994, 272, 340, 408, 69232, 68164, 68, 136, undefined, 1493684949043
Sustainer, Armed, 1300.0679999999984, 32.98930680000008, -106.9730432000004, 68, 136, 204, 0.02720000000000002, 0.040800000000000045, 0.003671999999999994, 272, 340, 408, 70164, 69164, 68, 136, undefined, 1493684949043
Booster, Armed, 1300.6899999999994, 32.98930690000008, -106.97304310000041, 69, 138, 207, 0.02760000000000002, 0.04140000000000005, 0.0037259999999999936, 276, 345, 414, 70231, 69162, 69, 138, undefined, 1493684949065
Sustainer, Armed, 1300.0689999999984, 32.98930690000008, -106.97304310000041, 69, 138, 207, 0.02760000000000002, 0.04140000000000005, 0.0037259999999999936, 276, 345, 414, 71162, 70162, 69, 138, undefined, 1493684949065
Booster, Armed, 1300.6999999999994, 32.98930700000008, -106.97304300000042, 70, 140, 210, 0.02800000000000002, 0.04200000000000005, 0.0037799999999999934, 280, 350, 420, 71230, 70160, 70, 140, undefined, 1493684949096
Sustainer, Armed, 1300.0699999999983, 32.98930700000008, -106.97304300000042, 70, 140, 210, 0.02800000000000002, 0.04200000000000005, 0.0037799999999999934, 280, 350, 420, 72160, 71160, 70, 140, undefined, 1493684949096
Booster, Armed, 1300.7099999999994, 32.98930710000008, -106.97304290000042, 71, 142, 213, 0.028400000000000022, 0.042600000000000054, 0.0038339999999999932, 284, 355, 426, 72229, 71158, 71, 142, undefined, 1493684949127
Sustainer, Armed, 1300.0709999999983, 32.98930710000008, -106.97304290000042, 71, 142, 213, 0.028400000000000022, 0.042600000000000054, 0.0038339999999999932, 284, 355, 426, 73158, 72158, 71, 142, undefined, 1493684949127
Booster, Armed, 1300.7199999999993, 32.989307200000084, -106.97304280000043, 72, 144, 216, 0.028800000000000023, 0.04320000000000006, 0.003887999999999993, 288, 360, 432, 73228, 72156, 72, 144, undefined, 1493684949158
Sustainer, Armed, 1300.0719999999983, 32.989307200000084, -106.97304280000043, 72, 144, 216, 0.028800000000000023, 0.04320000000000006, 0.003887999999999993, 288, 360, 432, 74156, 73156, 72, 144, undefined, 1493684949158
Booster, Armed, 1300.7299999999993, 32.989307300000085, -106.97304270000043, 73, 146, 219, 0.029200000000000025, 0.04380000000000006, 0.003941999999999993, 292, 365, 438, 74227, 73154, 73, 146, undefined, 1493684949194
Sustainer, Armed, 1300.0729999999983, 32.989307300000085, -106.97304270000043, 73, 146, 219, 0.029200000000000025, 0.04380000000000006, 0.003941999999999993, 292, 365, 438, 75154, 74154, 73, 146, undefined, 1493684949194
Booster, Armed, 1300.7399999999993, 32.98930740000009, -106.97304260000044, 74, 148, 222, 0.029600000000000026, 0.044400000000000064, 0.0039959999999999935, 296, 370, 444, 75226, 74152, 74, 148, undefined, 1493684949225
Sustainer, Armed, 1300.0739999999983, 32.98930740000009, -106.97304260000044, 74, 148, 222, 0.029600000000000026, 0.044400000000000064, 0.0039959999999999935, 296, 370, 444, 76152, 75152, 74, 148, undefined, 1493684949225
Booster, Armed, 1300.7499999999993, 32.98930750000009, -106.97304250000045, 75, 150, 225, 0.030000000000000027, 0.04500000000000007, 0.004049999999999994, 300, 375, 450, 76225, 75150, 75, 150, undefined, 1493684949257
Sustainer, Armed, 1300.0749999999982, 32.98930750000009, -106.97304250000045, 75, 150, 225, 0.030000000000000027, 0.04500000000000007, 0.004049999999999994, 300, 375, 450, 77150, 76150, 75, 150, undefined, 1493684949257
Booster, Armed, 1300.7599999999993, 32.98930760000009, -106.97304240000045, 76, 152, 228, 0.030400000000000028, 0.04560000000000007, 0.004103999999999994, 304, 380, 456, 77224, 76148, 76, 152, undefined, 1493684949293
Sustainer, Armed, 1300.0759999999982, 32.98930760000009, -106.97304240000045, 76, 152, 228, 0.030400000000000028, 0.04560000000000007, 0.004103999999999994, 304, 380, 456, 78148, 77148, 76, 152, undefined, 1493684949293
Booster, Armed, 1300.7699999999993, 32.98930770000009, -106.97304230000046, 77, 154, 231, 0.03080000000000003, 0.046200000000000074, 0.004157999999999994, 308, 385, 462, 78223, 77146, 77, 154, undefined, 1493684949324
Sustainer, Armed, 1300.0769999999982, 32.98930770000009, -106.97304230000046, 77, 154, 231, 0.03080000000000003, 0.046200000000000074, 0.004157999999999994, 308, 385, 462, 79146, 78146, 77, 154, undefined, 1493684949324
Booster, Armed, 1300.7799999999993, 32.98930780000009, -106.97304220000046, 78, 156, 234, 0.03120000000000003, 0.04680000000000008, 0.004211999999999994, 312, 390, 468, 79222, 78144, 78, 156, undefined, 1493684949355
Sustainer, Armed, 1300.0779999999982, 32.98930780000009, -106.97304220000046, 78, 156, 234, 0.03120000000000003, 0.04680000000000008, 0.004211999999999994, 312, 390, 468, 80144, 79144, 78, 156, undefined, 1493684949355
Booster, Armed, 1300.7899999999993, 32.98930790000009, -106.97304210000047, 79, 158, 237, 0.03160000000000003, 0.04740000000000008, 0.004265999999999995, 316, 395, 474, 80221, 79142, 79, 158, undefined, 1493684949386
Sustainer, Armed, 1300.0789999999981, 32.98930790000009, -106.97304210000047, 79, 158, 237, 0.03160000000000003, 0.04740000000000008, 0.004265999999999995, 316, 395, 474, 81142, 80142, 79, 158, undefined, 1493684949386
Booster, Armed, 1300.7999999999993, 32.989308000000094, -106.97304200000048, 80, 160, 240, 0.03200000000000003, 0.048000000000000084, 0.004319999999999995, 320, 400, 480, 81220, 80140, 80, 160, undefined, 1493684949408
Sustainer, Armed, 1300.079999999998, 32.989308000000094, -106.97304200000048, 80, 160, 240, 0.03200000000000003, 0.048000000000000084, 0.004319999999999995, 320, 400, 480, 82140, 81140, 80, 160, undefined, 1493684949408
Booster, Armed, 1300.8099999999993, 32.989308100000095, -106.97304190000048, 81, 162, 243, 0.032400000000000026, 0.04860000000000009, 0.004373999999999995, 324, 405, 486, 82219, 81138, 81, 162, undefined, 1493684949429
Sustainer, Armed, 1300.080999999998, 32.989308100000095, -106.97304190000048, 81, 162, 243, 0.032400000000000026, 0.04860000000000009, 0.004373999999999995, 324, 405, 486, 83138, 82138, 81, 162, undefined, 1493684949429
Booster, Armed, 1300.8199999999993, 32.989308200000096, -106.97304180000049, 82, 164, 246, 0.032800000000000024, 0.04920000000000009, 0.004427999999999995, 328, 410, 492, 83218, 82136, 82, 164, undefined, 1493684949460
Sustainer, Armed, 1300.081999999998, 32.989308200000096, -106.97304180000049, 82, 164, 246, 0.032800000000000024, 0.04920000000000009, 0.004427999999999995, 328, 410, 492, 84136, 83136, 82, 164, undefined, 1493684949460
Booster, Armed, 1300.8299999999992, 32.9893083000001, -106.9730417000005, 83, 166, 249, 0.03320000000000002, 0.049800000000000094, 0.0044819999999999955, 332, 415, 498, 84217, 83134, 83, 166, undefined, 1493684949491
Sustainer, Armed, 1300.082999999998, 32.9893083000001, -106.9730417000005, 83, 166, 249, 0.03320000000000002, 0.049800000000000094, 0.0044819999999999955, 332, 415, 498, 85134, 84134, 83, 166, undefined, 1493684949491
Booster, Armed, 1300.8399999999992, 32.9893084000001, -106.9730416000005, 84, 168, 252, 0.03360000000000002, 0.0504000000000001, 0.004535999999999996, 336, 420, 504, 85216, 84132, 84, 168, undefined, 1493684949511
Sustainer, Armed, 1300.083999999998, 32.9893084000001, -106.9730416000005, 84, 168, 252, 0.03360000000000002, 0.0504000000000001, 0.004535999999999996, 336, 420, 504, 86132, 85132, 84, 168, undefined, 1493684949511
Booster, Armed, 1300.8499999999992, 32.9893085000001, -106.9730415000005, 85, 170, 255, 0.034000000000000016, 0.0510000000000001, 0.004589999999999996, 340, 425, 510, 86215, 85130, 85, 170, undefined, 1493684949542
Sustainer, Armed, 1300.084999999998, 32.9893085000001, -106.9730415000005, 85, 170, 255, 0.034000000000000016, 0.0510000000000001, 0.004589999999999996, 340, 425, 510, 87130, 86130, 85, 170, undefined, 1493684949542
Booster, Armed, 1300.8599999999992, 32.9893086000001, -106.97304140000051, 86, 172, 258, 0.034400000000000014, 0.051600000000000104, 0.004643999999999996, 344, 430, 516, 87214, 86128, 86, 172, undefined, 1493684949575
Sustainer, Armed, 1300.085999999998, 32.9893086000001, -106.97304140000051, 86, 172, 258, 0.034400000000000014, 0.051600000000000104, 0.004643999999999996, 344, 430, 516, 88128, 87128, 86, 172, undefined, 1493684949575
Booster, Armed, 1300.8699999999992, 32.9893087000001, -106.97304130000052, 87, 174, 261, 0.03480000000000001, 0.05220000000000011, 0.0046979999999999964, 348, 435, 522, 88213, 87126, 87, 174, undefined, 1493684949606
Sustainer, Armed, 1300.086999999998, 32.9893087000001, -106.97304130000052, 87, 174, 261, 0.03480000000000001, 0.05220000000000011, 0.0046979999999999964, 348, 435, 522, 89126, 88126, 87, 174, undefined, 1493684949606
Booster, Armed, 1300.8799999999992, 32.9893088000001, -106.97304120000052, 88, 176, 264, 0.03520000000000001, 0.05280000000000011, 0.004751999999999997, 352, 440, 528, 89212, 88124, 88, 176, undefined, 1493684949627
Sustainer, Armed, 1300.087999999998, 32.9893088000001, -106.97304120000052, 88, 176, 264, 0.03520000000000001, 0.05280000000000011, 0.004751999999999997, 352, 440, 528, 90124, 89124, 88, 176, undefined, 1493684949627
Sustainer, Armed, 1300.088999999998, 32.989308900000104, -106.97304110000053, 89, 178, 267, 0.03560000000000001, 0.053400000000000114, 0.004805999999999997, 356, 445, 534, 91122, 90122, 89, 178, undefined, 1493684949658
Booster, Armed, 1300.8899999999992, 32.989308900000104, -106.97304110000053, 89, 178, 267, 0.03560000000000001, 0.053400000000000114, 0.004805999999999997, 356, 445, 534, 90211, 89122, 89, 178, undefined, 1493684949658
Booster, Armed, 1300.8999999999992, 32.989309000000105, -106.97304100000053, 90, 180, 270, 0.036000000000000004, 0.05400000000000012, 0.004859999999999997, 360, 450, 540, 91210, 90120, 90, 180, undefined, 1493684949689
Sustainer, Armed, 1300.0899999999979, 32.989309000000105, -106.97304100000053, 90, 180, 270, 0.036000000000000004, 0.05400000000000012, 0.004859999999999997, 360, 450, 540, 92120, 91120, 90, 180, undefined, 1493684949689
Booster, Armed, 1300.9099999999992, 32.989309100000106, -106.97304090000054, 91, 182, 273, 0.0364, 0.05460000000000012, 0.004913999999999997, 364, 455, 546, 92209, 91118, 91, 182, undefined, 1493684949720
Sustainer, Armed, 1300.0909999999978, 32.989309100000106, -106.97304090000054, 91, 182, 273, 0.0364, 0.05460000000000012, 0.004913999999999997, 364, 455, 546, 93118, 92118, 91, 182, undefined, 1493684949720
Booster, Armed, 1300.9199999999992, 32.98930920000011, -106.97304080000055, 92, 184, 276, 0.0368, 0.055200000000000124, 0.004967999999999998, 368, 460, 552, 93208, 92116, 92, 184, undefined, 1493684949741
Sustainer, Armed, 1300.0919999999978, 32.98930920000011, -106.97304080000055, 92, 184, 276, 0.0368, 0.055200000000000124, 0.004967999999999998, 368, 460, 552, 94116, 93116, 92, 184, undefined, 1493684949741
Booster, Armed, 1300.9299999999992, 32.98930930000011, -106.97304070000055, 93, 186, 279, 0.0372, 0.05580000000000013, 0.005021999999999998, 372, 465, 558, 94207, 93114, 93, 186, undefined, 1493684949772
Sustainer, Armed, 1300.0929999999978, 32.98930930000011, -106.97304070000055, 93, 186, 279, 0.0372, 0.05580000000000013, 0.005021999999999998, 372, 465, 558, 95114, 94114, 93, 186, undefined, 1493684949772
Sustainer, Armed, 1300.0939999999978, 32.98930940000011, -106.97304060000056, 94, 188, 282, 0.037599999999999995, 0.05640000000000013, 0.005075999999999998, 376, 470, 564, 96112, 95112, 94, 188, undefined, 1493684949803
Booster, Armed, 1300.9399999999991, 32.98930940000011, -106.97304060000056, 94, 188, 282, 0.037599999999999995, 0.05640000000000013, 0.005075999999999998, 376, 470, 564, 95206, 94112, 94, 188, undefined, 1493684949803
Booster, Armed, 1300.9499999999991, 32.98930950000011, -106.97304050000056, 95, 190, 285, 0.03799999999999999, 0.057000000000000134, 0.005129999999999998, 380, 475, 570, 96205, 95110, 95, 190, undefined, 1493684949834
Sustainer, Armed, 1300.0949999999978, 32.98930950000011, -106.97304050000056, 95, 190, 285, 0.03799999999999999, 0.057000000000000134, 0.005129999999999998, 380, 475, 570, 97110, 96110, 95, 190, undefined, 1493684949834
Booster, Armed, 1300.9599999999991, 32.98930960000011, -106.97304040000057, 96, 192, 288, 0.03839999999999999, 0.05760000000000014, 0.0051839999999999985, 384, 480, 576, 97204, 96108, 96, 192, undefined, 1493684949867
Sustainer, Armed, 1300.0959999999977, 32.98930960000011, -106.97304040000057, 96, 192, 288, 0.03839999999999999, 0.05760000000000014, 0.0051839999999999985, 384, 480, 576, 98108, 97108, 96, 192, undefined, 1493684949867
Booster, Armed, 1300.9699999999991, 32.98930970000011, -106.97304030000058, 97, 194, 291, 0.03879999999999999, 0.05820000000000014, 0.005237999999999999, 388, 485, 582, 98203, 97106, 97, 194, undefined, 1493684949899
Sustainer, Armed, 1300.0969999999977, 32.98930970000011, -106.97304030000058, 97, 194, 291, 0.03879999999999999, 0.05820000000000014, 0.005237999999999999, 388, 485, 582, 99106, 98106, 97, 194, undefined, 1493684949899
Booster, Armed, 1300.979999999999, 32.989309800000115, -106.97304020000058, 98, 196, 294, 0.039199999999999985, 0.058800000000000144, 0.005291999999999999, 392, 490, 588, 99202, 98104, 98, 196, undefined, 1493684949930
Sustainer, Armed, 1300.0979999999977, 32.989309800000115, -106.97304020000058, 98, 196, 294, 0.039199999999999985, 0.058800000000000144, 0.005291999999999999, 392, 490, 588, 100104, 99104, 98, 196, undefined, 1493684949930
Booster, Armed, 1300.989999999999, 32.989309900000116, -106.97304010000059, 99, 198, 297, 0.03959999999999998, 0.05940000000000015, 0.005345999999999999, 396, 495, 594, 100201, 99102, 99, 198, undefined, 1493684949951
Sustainer, Armed, 1300.0989999999977, 32.989309900000116, -106.97304010000059, 99, 198, 297, 0.03959999999999998, 0.05940000000000015, 0.005345999999999999, 396, 495, 594, 101102, 100102, 99, 198, undefined, 1493684949951
Booster, Armed, 1300.999999999999, 32.98931000000012, -106.9730400000006, 100, 200, 300, 0.03999999999999998, 0.06000000000000015, 0.005399999999999999, 400, 500, 600, 101200, 100100, 100, 200, undefined, 1493684949983
Sustainer, Armed, 1300.0999999999976, 32.98931000000012, -106.9730400000006, 100, 200, 300, 0.03999999999999998, 0.06000000000000015, 0.005399999999999999, 400, 500, 600, 102100, 101100, 100, 200, undefined, 1493684949983
Booster, Armed, 1301.009999999999, 32.98931010000012, -106.9730399000006, 101, 202, 303, 0.04039999999999998, 0.060600000000000154, 0.005454, 404, 505, 606, 102199, 101098, 101, 202, undefined, 1493684950014
Sustainer, Armed, 1300.1009999999976, 32.98931010000012, -106.9730399000006, 101, 202, 303, 0.04039999999999998, 0.060600000000000154, 0.005454, 404, 505, 606, 103098, 102098, 101, 202, undefined, 1493684950014
Booster, Armed, 1301.019999999999, 32.98931020000012, -106.9730398000006, 102, 204, 306, 0.040799999999999975, 0.06120000000000016, 0.005508, 408, 510, 612, 103198, 102096, 102, 204, undefined, 1493684950045
Sustainer, Armed, 1300.1019999999976, 32.98931020000012, -106.9730398000006, 102, 204, 306, 0.040799999999999975, 0.06120000000000016, 0.005508, 408, 510, 612, 104096, 103096, 102, 204, undefined, 1493684950045
Booster, Armed, 1301.029999999999, 32.98931030000012, -106.97303970000061, 103, 206, 309, 0.04119999999999997, 0.06180000000000016, 0.005562, 412, 515, 618, 104197, 103094, 103, 206, undefined, 1493684950081
Sustainer, Armed, 1300.1029999999976, 32.98931030000012, -106.97303970000061, 103, 206, 309, 0.04119999999999997, 0.06180000000000016, 0.005562, 412, 515, 618, 105094, 104094, 103, 206, undefined, 1493684950081
Booster, Armed, 1301.039999999999, 32.98931040000012, -106.97303960000062, 104, 208, 312, 0.04159999999999997, 0.062400000000000164, 0.005616, 416, 520, 624, 105196, 104092, 104, 208, undefined, 1493684950112
Sustainer, Armed, 1300.1039999999975, 32.98931040000012, -106.97303960000062, 104, 208, 312, 0.04159999999999997, 0.062400000000000164, 0.005616, 416, 520, 624, 106092, 105092, 104, 208, undefined, 1493684950112
Booster, Armed, 1301.049999999999, 32.98931050000012, -106.97303950000062, 105, 210, 315, 0.04199999999999997, 0.06300000000000017, 0.0056700000000000006, 420, 525, 630, 106195, 105090, 105, 210, undefined, 1493684950144
Sustainer, Armed, 1300.1049999999975, 32.98931050000012, -106.97303950000062, 105, 210, 315, 0.04199999999999997, 0.06300000000000017, 0.0056700000000000006, 420, 525, 630, 107090, 106090, 105, 210, undefined, 1493684950144
Booster, Armed, 1301.059999999999, 32.989310600000124, -106.97303940000063, 106, 212, 318, 0.042399999999999965, 0.06360000000000017, 0.005724000000000001, 424, 530, 636, 107194, 106088, 106, 212, undefined, 1493684950175
Sustainer, Armed, 1300.1059999999975, 32.989310600000124, -106.97303940000063, 106, 212, 318, 0.042399999999999965, 0.06360000000000017, 0.005724000000000001, 424, 530, 636, 108088, 107088, 106, 212, undefined, 1493684950175
Booster, Armed, 1301.069999999999, 32.989310700000125, -106.97303930000064, 107, 214, 321, 0.04279999999999996, 0.06420000000000017, 0.005778000000000001, 428, 535, 642, 108193, 107086, 107, 214, undefined, 1493684950196
Sustainer, Armed, 1300.1069999999975, 32.989310700000125, -106.97303930000064, 107, 214, 321, 0.04279999999999996, 0.06420000000000017, 0.005778000000000001, 428, 535, 642, 109086, 108086, 107, 214, undefined, 1493684950196
Booster, Armed, 1301.079999999999, 32.989310800000126, -106.97303920000064, 108, 216, 324, 0.04319999999999996, 0.06480000000000018, 0.005832000000000001, 432, 540, 648, 109192, 108084, 108, 216, undefined, 1493684950227
Sustainer, Armed, 1300.1079999999974, 32.989310800000126, -106.97303920000064, 108, 216, 324, 0.04319999999999996, 0.06480000000000018, 0.005832000000000001, 432, 540, 648, 110084, 109084, 108, 216, undefined, 1493684950227
Booster, Armed, 1301.089999999999, 32.98931090000013, -106.97303910000065, 109, 218, 327, 0.04359999999999996, 0.06540000000000018, 0.0058860000000000015, 436, 545, 654, 110191, 109082, 109, 218, undefined, 1493684950258
Sustainer, Armed, 1300.1089999999974, 32.98931090000013, -106.97303910000065, 109, 218, 327, 0.04359999999999996, 0.06540000000000018, 0.0058860000000000015, 436, 545, 654, 111082, 110082, 109, 218, undefined, 1493684950258
Booster, Armed, 1301.099999999999, 32.98931100000013, -106.97303900000065, 110, 220, 330, 0.043999999999999956, 0.06600000000000018, 0.005940000000000002, 440, 550, 660, 111190, 110080, 110, 220, undefined, 1493684950290
Sustainer, Armed, 1300.1099999999974, 32.98931100000013, -106.97303900000065, 110, 220, 330, 0.043999999999999956, 0.06600000000000018, 0.005940000000000002, 440, 550, 660, 112080, 111080, 110, 220, undefined, 1493684950290
Booster, Armed, 1301.109999999999, 32.98931110000013, -106.97303890000066, 111, 222, 333, 0.04439999999999995, 0.06660000000000019, 0.005994000000000002, 444, 555, 666, 112189, 111078, 111, 222, undefined, 1493684950310
Sustainer, Armed, 1300.1109999999974, 32.98931110000013, -106.97303890000066, 111, 222, 333, 0.04439999999999995, 0.06660000000000019, 0.005994000000000002, 444, 555, 666, 113078, 112078, 111, 222, undefined, 1493684950310
Booster, Armed, 1301.119999999999, 32.98931120000013, -106.97303880000067, 112, 224, 336, 0.04479999999999995, 0.06720000000000019, 0.006048000000000002, 448, 560, 672, 113188, 112076, 112, 224, undefined, 1493684950341
Sustainer, Armed, 1300.1119999999974, 32.98931120000013, -106.97303880000067, 112, 224, 336, 0.04479999999999995, 0.06720000000000019, 0.006048000000000002, 448, 560, 672, 114076, 113076, 112, 224, undefined, 1493684950341
Booster, Armed, 1301.129999999999, 32.98931130000013, -106.97303870000067, 113, 226, 339, 0.04519999999999995, 0.0678000000000002, 0.006102000000000002, 452, 565, 678, 114187, 113074, 113, 226, undefined, 1493684950372
Sustainer, Armed, 1300.1129999999973, 32.98931130000013, -106.97303870000067, 113, 226, 339, 0.04519999999999995, 0.0678000000000002, 0.006102000000000002, 452, 565, 678, 115074, 114074, 113, 226, undefined, 1493684950372
Booster, Armed, 1301.139999999999, 32.98931140000013, -106.97303860000068, 114, 228, 342, 0.045599999999999946, 0.0684000000000002, 0.006156000000000003, 456, 570, 684, 115186, 114072, 114, 228, undefined, 1493684950404
Sustainer, Armed, 1300.1139999999973, 32.98931140000013, -106.97303860000068, 114, 228, 342, 0.045599999999999946, 0.0684000000000002, 0.006156000000000003, 456, 570, 684, 116072, 115072, 114, 228, undefined, 1493684950404
Booster, Armed, 1301.149999999999, 32.989311500000134, -106.97303850000068, 115, 230, 345, 0.045999999999999944, 0.0690000000000002, 0.006210000000000003, 460, 575, 690, 116185, 115070, 115, 230, undefined, 1493684950439
Sustainer, Armed, 1300.1149999999973, 32.989311500000134, -106.97303850000068, 115, 230, 345, 0.045999999999999944, 0.0690000000000002, 0.006210000000000003, 460, 575, 690, 117070, 116070, 115, 230, undefined, 1493684950439
Booster, Armed, 1301.159999999999, 32.989311600000136, -106.97303840000069, 116, 232, 348, 0.04639999999999994, 0.0696000000000002, 0.006264000000000003, 464, 580, 696, 117184, 116068, 116, 232, undefined, 1493684950471
Sustainer, Armed, 1300.1159999999973, 32.989311600000136, -106.97303840000069, 116, 232, 348, 0.04639999999999994, 0.0696000000000002, 0.006264000000000003, 464, 580, 696, 118068, 117068, 116, 232, undefined, 1493684950471
Booster, Armed, 1301.169999999999, 32.98931170000014, -106.9730383000007, 117, 234, 351, 0.04679999999999994, 0.0702000000000002, 0.006318000000000003, 468, 585, 702, 118183, 117066, 117, 234, undefined, 1493684950502
Sustainer, Armed, 1300.1169999999972, 32.98931170000014, -106.9730383000007, 117, 234, 351, 0.04679999999999994, 0.0702000000000002, 0.006318000000000003, 468, 585, 702, 119066, 118066, 117, 234, undefined, 1493684950502
Booster, Armed, 1301.179999999999, 32.98931180000014, -106.9730382000007, 118, 236, 354, 0.047199999999999936, 0.07080000000000021, 0.0063720000000000035, 472, 590, 708, 119182, 118064, 118, 236, undefined, 1493684950522
Sustainer, Armed, 1300.1179999999972, 32.98931180000014, -106.9730382000007, 118, 236, 354, 0.047199999999999936, 0.07080000000000021, 0.0063720000000000035, 472, 590, 708, 120064, 119064, 118, 236, undefined, 1493684950522
Booster, Armed, 1301.189999999999, 32.98931190000014, -106.97303810000071, 119, 238, 357, 0.047599999999999934, 0.07140000000000021, 0.006426000000000004, 476, 595, 714, 120181, 119062, 119, 238, undefined, 1493684950554
Sustainer, Armed, 1300.1189999999972, 32.98931190000014, -106.97303810000071, 119, 238, 357, 0.047599999999999934, 0.07140000000000021, 0.006426000000000004, 476, 595, 714, 121062, 120062, 119, 238, undefined, 1493684950554
Booster, Armed, 1301.199999999999, 32.98931200000014, -106.97303800000071, 120, 240, 360, 0.04799999999999993, 0.07200000000000022, 0.006480000000000004, 480, 600, 720, 121180, 120060, 120, 240, undefined, 1493684950585
Sustainer, Armed, 1300.1199999999972, 32.98931200000014, -106.97303800000071, 120, 240, 360, 0.04799999999999993, 0.07200000000000022, 0.006480000000000004, 480, 600, 720, 122060, 121060, 120, 240, undefined, 1493684950585
Booster, Armed, 1301.209999999999, 32.98931210000014, -106.97303790000072, 121, 242, 363, 0.04839999999999993, 0.07260000000000022, 0.006534000000000004, 484, 605, 726, 122179, 121058, 121, 242, undefined, 1493684950616
Sustainer, Armed, 1300.1209999999971, 32.98931210000014, -106.97303790000072, 121, 242, 363, 0.04839999999999993, 0.07260000000000022, 0.006534000000000004, 484, 605, 726, 123058, 122058, 121, 242, undefined, 1493684950616
Booster, Armed, 1301.219999999999, 32.98931220000014, -106.97303780000072, 122, 244, 366, 0.04879999999999993, 0.07320000000000022, 0.0065880000000000044, 488, 610, 732, 123178, 122056, 122, 244, undefined, 1493684950652
Sustainer, Armed, 1300.1219999999971, 32.98931220000014, -106.97303780000072, 122, 244, 366, 0.04879999999999993, 0.07320000000000022, 0.0065880000000000044, 488, 610, 732, 124056, 123056, 122, 244, undefined, 1493684950652
Booster, Armed, 1301.2299999999989, 32.989312300000144, -106.97303770000073, 123, 246, 369, 0.049199999999999924, 0.07380000000000023, 0.006642000000000005, 492, 615, 738, 124177, 123054, 123, 246, undefined, 1493684950683
Sustainer, Armed, 1300.122999999997, 32.989312300000144, -106.97303770000073, 123, 246, 369, 0.049199999999999924, 0.07380000000000023, 0.006642000000000005, 492, 615, 738, 125054, 124054, 123, 246, undefined, 1493684950683
Booster, Armed, 1301.2399999999989, 32.989312400000145, -106.97303760000074, 124, 248, 372, 0.04959999999999992, 0.07440000000000023, 0.006696000000000005, 496, 620, 744, 125176, 124052, 124, 248, undefined, 1493684950714
Sustainer, Armed, 1300.123999999997, 32.989312400000145, -106.97303760000074, 124, 248, 372, 0.04959999999999992, 0.07440000000000023, 0.006696000000000005, 496, 620, 744, 126052, 125052, 124, 248, undefined, 1493684950714
Booster, Armed, 1301.2499999999989, 32.989312500000146, -106.97303750000074, 125, 250, 375, 0.04999999999999992, 0.07500000000000023, 0.006750000000000005, 500, 625, 750, 126175, 125050, 125, 250, undefined, 1493684950746
Sustainer, Armed, 1300.124999999997, 32.989312500000146, -106.97303750000074, 125, 250, 375, 0.04999999999999992, 0.07500000000000023, 0.006750000000000005, 500, 625, 750, 127050, 126050, 125, 250, undefined, 1493684950746
Booster, Armed, 1301.2599999999989, 32.98931260000015, -106.97303740000075, 126, 252, 378, 0.05039999999999992, 0.07560000000000024, 0.006804000000000005, 504, 630, 756, 127174, 126048, 126, 252, undefined, 1493684950782
Sustainer, Armed, 1300.125999999997, 32.98931260000015, -106.97303740000075, 126, 252, 378, 0.05039999999999992, 0.07560000000000024, 0.006804000000000005, 504, 630, 756, 128048, 127048, 126, 252, undefined, 1493684950782
Booster, Armed, 1301.2699999999988, 32.98931270000015, -106.97303730000075, 127, 254, 381, 0.050799999999999915, 0.07620000000000024, 0.006858000000000006, 508, 635, 762, 128173, 127046, 127, 254, undefined, 1493684950813
Sustainer, Armed, 1300.126999999997, 32.98931270000015, -106.97303730000075, 127, 254, 381, 0.050799999999999915, 0.07620000000000024, 0.006858000000000006, 508, 635, 762, 129046, 128046, 127, 254, undefined, 1493684950813
Booster, Armed, 1301.2799999999988, 32.98931280000015, -106.97303720000076, 128, 256, 384, 0.05119999999999991, 0.07680000000000024, 0.006912000000000006, 512, 640, 768, 129172, 128044, 128, 256, undefined, 1493684950844
Sustainer, Armed, 1300.127999999997, 32.98931280000015, -106.97303720000076, 128, 256, 384, 0.05119999999999991, 0.07680000000000024, 0.006912000000000006, 512, 640, 768, 130044, 129044, 128, 256, undefined, 1493684950844
Booster, Armed, 1301.2899999999988, 32.98931290000015, -106.97303710000077, 129, 258, 387, 0.05159999999999991, 0.07740000000000025, 0.006966000000000006, 516, 645, 774, 130171, 129042, 129, 258, undefined, 1493684950864
Sustainer, Armed, 1300.128999999997, 32.98931290000015, -106.97303710000077, 129, 258, 387, 0.05159999999999991, 0.07740000000000025, 0.006966000000000006, 516, 645, 774, 131042, 130042, 129, 258, undefined, 1493684950864
Booster, Armed, 1301.2999999999988, 32.98931300000015, -106.97303700000077, 130, 260, 390, 0.05199999999999991, 0.07800000000000025, 0.007020000000000006, 520, 650, 780, 131170, 130040, 130, 260, undefined, 1493684950896
Sustainer, Armed, 1300.129999999997, 32.98931300000015, -106.97303700000077, 130, 260, 390, 0.05199999999999991, 0.07800000000000025, 0.007020000000000006, 520, 650, 780, 132040, 131040, 130, 260, undefined, 1493684950896
Booster, Armed, 1301.3099999999988, 32.98931310000015, -106.97303690000078, 131, 262, 393, 0.052399999999999905, 0.07860000000000025, 0.0070740000000000065, 524, 655, 786, 132169, 131038, 131, 262, undefined, 1493684950927
Sustainer, Armed, 1300.130999999997, 32.98931310000015, -106.97303690000078, 131, 262, 393, 0.052399999999999905, 0.07860000000000025, 0.0070740000000000065, 524, 655, 786, 133038, 132038, 131, 262, undefined, 1493684950927
Booster, Armed, 1301.3199999999988, 32.989313200000154, -106.97303680000078, 132, 264, 396, 0.0527999999999999, 0.07920000000000026, 0.007128000000000007, 528, 660, 792, 133168, 132036, 132, 264, undefined, 1493684950958
Sustainer, Armed, 1300.1319999999969, 32.989313200000154, -106.97303680000078, 132, 264, 396, 0.0527999999999999, 0.07920000000000026, 0.007128000000000007, 528, 660, 792, 134036, 133036, 132, 264, undefined, 1493684950958
Booster, Armed, 1301.3299999999988, 32.989313300000155, -106.97303670000079, 133, 266, 399, 0.0531999999999999, 0.07980000000000026, 0.007182000000000007, 532, 665, 798, 134167, 133034, 133, 266, undefined, 1493684950979
Sustainer, Armed, 1300.1329999999969, 32.989313300000155, -106.97303670000079, 133, 266, 399, 0.0531999999999999, 0.07980000000000026, 0.007182000000000007, 532, 665, 798, 135034, 134034, 133, 266, undefined, 1493684950979
Booster, Armed, 1301.3399999999988, 32.98931340000016, -106.9730366000008, 134, 268, 402, 0.0535999999999999, 0.08040000000000026, 0.007236000000000007, 536, 670, 804, 135166, 134032, 134, 268, undefined, 1493684951011
Sustainer, Armed, 1300.1339999999968, 32.98931340000016, -106.9730366000008, 134, 268, 402, 0.0535999999999999, 0.08040000000000026, 0.007236000000000007, 536, 670, 804, 136032, 135032, 134, 268, undefined, 1493684951011
Booster, Armed, 1301.3499999999988, 32.98931350000016, -106.9730365000008, 135, 270, 405, 0.053999999999999895, 0.08100000000000027, 0.007290000000000007, 540, 675, 810, 136165, 135030, 135, 270, undefined, 1493684951042
Sustainer, Armed, 1300.1349999999968, 32.98931350000016, -106.9730365000008, 135, 270, 405, 0.053999999999999895, 0.08100000000000027, 0.007290000000000007, 540, 675, 810, 137030, 136030, 135, 270, undefined, 1493684951042
Booster, Armed, 1301.3599999999988, 32.98931360000016, -106.97303640000081, 136, 272, 408, 0.05439999999999989, 0.08160000000000027, 0.007344000000000008, 544, 680, 816, 137164, 136028, 136, 272, undefined, 1493684951073
Sustainer, Armed, 1300.1359999999968, 32.98931360000016, -106.97303640000081, 136, 272, 408, 0.05439999999999989, 0.08160000000000027, 0.007344000000000008, 544, 680, 816, 138028, 137028, 136, 272, undefined, 1493684951073
Booster, Armed, 1301.3699999999988, 32.98931370000016, -106.97303630000081, 137, 274, 411, 0.05479999999999989, 0.08220000000000027, 0.007398000000000008, 548, 685, 822, 138163, 137026, 137, 274, undefined, 1493684951109
Sustainer, Armed, 1300.1369999999968, 32.98931370000016, -106.97303630000081, 137, 274, 411, 0.05479999999999989, 0.08220000000000027, 0.007398000000000008, 548, 685, 822, 139026, 138026, 137, 274, undefined, 1493684951109
Booster, Armed, 1301.3799999999987, 32.98931380000016, -106.97303620000082, 138, 276, 414, 0.05519999999999989, 0.08280000000000028, 0.007452000000000008, 552, 690, 828, 139162, 138024, 138, 276, undefined, 1493684951140
Sustainer, Armed, 1300.1379999999967, 32.98931380000016, -106.97303620000082, 138, 276, 414, 0.05519999999999989, 0.08280000000000028, 0.007452000000000008, 552, 690, 828, 140024, 139024, 138, 276, undefined, 1493684951140
Booster, Armed, 1301.3899999999987, 32.98931390000016, -106.97303610000083, 139, 278, 417, 0.055599999999999886, 0.08340000000000028, 0.007506000000000008, 556, 695, 834, 140161, 139022, 139, 278, undefined, 1493684951172
Sustainer, Armed, 1300.1389999999967, 32.98931390000016, -106.97303610000083, 139, 278, 417, 0.055599999999999886, 0.08340000000000028, 0.007506000000000008, 556, 695, 834, 141022, 140022, 139, 278, undefined, 1493684951172
Booster, Armed, 1301.3999999999987, 32.989314000000164, -106.97303600000083, 140, 280, 420, 0.05599999999999988, 0.08400000000000028, 0.0075600000000000086, 560, 700, 840, 141160, 140020, 140, 280, undefined, 1493684951203
Sustainer, Armed, 1300.1399999999967, 32.989314000000164, -106.97303600000083, 140, 280, 420, 0.05599999999999988, 0.08400000000000028, 0.0075600000000000086, 560, 700, 840, 142020, 141020, 140, 280, undefined, 1493684951203
Booster, Armed, 1301.4099999999987, 32.989314100000165, -106.97303590000084, 141, 282, 423, 0.05639999999999988, 0.08460000000000029, 0.007614000000000009, 564, 705, 846, 142159, 141018, 141, 282, undefined, 1493684951224
Sustainer, Armed, 1300.1409999999967, 32.989314100000165, -106.97303590000084, 141, 282, 423, 0.05639999999999988, 0.08460000000000029, 0.007614000000000009, 564, 705, 846, 143018, 142018, 141, 282, undefined, 1493684951224
